[
    {
        "airportCity": "Aalborg",
        "airportCode": "AAL",
        "airportName": "Aalborg Airport",
        "countryCode": "DK",
        "countryName": "Denmark",
        "latitude": 57.092,
        "longitude": 9.84,
        "recordType": "A",
        "cugCurrencyCode": "DKK"
    },
    {
        "airportCity": "Aarhus",
        "airportCode": "AAR",
        "airportName": "Aarhus Airport",
        "countryCode": "DK",
        "countryName": "Denmark",
        "latitude": 56.3082,
        "longitude": 10.6264,
        "recordType": "A",
        "cugCurrencyCode": "DKK"
    },
    {
        "airportCity": "Aberdeen",
        "airportCode": "ABZ",
        "airportName": "Aberdeen International Airport",
        "countryCode": "GB",
        "countryName": "Scotland United Kingdom",
        "latitude": 57.20369,
        "longitude": -2.20016,
        "recordType": "A",
        "cugCurrencyCode": "GBP"
    },
    {
        "airportCity": "Aberdeen",
        "airportCode": "ZXA",
        "airportName": "Aberdeen Railway Station",
        "countryCode": "GB",
        "countryName": "United Kingdom",
        "latitude": 57.1436,
        "longitude": 2.0988,
        "recordType": "R",
        "cugCurrencyCode": "GBP"
    },
    {
        "airportCity": "Abha",
        "airportCode": "AHB",
        "airportName": "Abha Regional Airport",
        "countryCode": "SA",
        "countryName": "Saudi Arabia",
        "latitude": 18.2404,
        "longitude": 42.657574,
        "recordType": "A",
        "cugCurrencyCode": "SAR"
    },
    {
        "airportCity": "Abidjan",
        "airportCode": "ABJ",
        "airportName": "Port Bouet Airport",
        "countryCode": "CI",
        "countryName": "Ivory Coast",
        "latitude": 5.254879,
        "longitude": -3.933015,
        "recordType": "A",
        "cugCurrencyCode": "INR"
    },
    {
        "airportCity": "Abu Dhabi",
        "airportCode": "AUH",
        "airportName": "Abu Dhabi International Airport",
        "countryCode": "AE",
        "countryName": "United Arab Emirates",
        "latitude": 24.43306,
        "longitude": 54.65111,
        "recordType": "A",
        "cugCurrencyCode": "AED"
    },
    {
        "airportCity": "Abuja",
        "airportCode": "ABV",
        "airportName": "Nnamdi Azikiwe International Airport",
        "countryCode": "NG",
        "countryName": "Nigeria",
        "latitude": 9.004614,
        "longitude": 7.270447,
        "recordType": "A",
        "cugCurrencyCode": "USD"
    },
    {
        "airportCity": "Accra",
        "airportCode": "ACC",
        "airportName": "Kotoka International Airport",
        "countryCode": "GH",
        "countryName": "Ghana",
        "latitude": 5.6061,
        "longitude": 0.1681,
        "recordType": "A",
        "cugCurrencyCode": "USD"
    },
    {
        "airportCity": "Addis Ababa",
        "airportCode": "ADD",
        "airportName": "Addis Ababa Airport",
        "countryCode": "ET",
        "countryName": "Ethiopia",
        "latitude": 8.97694,
        "longitude": 38.8,
        "recordType": "A",
        "cugCurrencyCode": "USD"
    },
    {
        "airportCity": "Adelaide",
        "airportCode": "ADL",
        "airportName": "Adelaide International Airport",
        "countryCode": "AU",
        "countryName": "Australia",
        "latitude": -34.947512,
        "longitude": 138.533393,
        "recordType": "A",
        "cugCurrencyCode": "AUD"
    },
    {
        "airportCity": "Afragola",
        "airportCode": "NHR",
        "airportName": "Napoli Afragola Rail Station",
        "countryCode": "IT",
        "countryName": "Italy",
        "latitude": 40.9264,
        "longitude": 14.3142,
        "recordType": "A",
        "cugCurrencyCode": "EUR"
    },
    {
        "airportCity": "Agadir",
        "airportCode": "AGA",
        "airportName": "Agadir–Al Massira Airport",
        "countryCode": "MA",
        "countryName": "Morocco",
        "latitude": 30.322478,
        "longitude": -9.412003,
        "recordType": "A",
        "cugCurrencyCode": "INR"
    },
    {
        "airportCity": "Agartala",
        "airportCode": "IXA",
        "airportName": "Maharaja Bir Bikram Airport",
        "countryCode": "IN",
        "countryName": "India",
        "latitude": 23.8873,
        "longitude": 91.2387,
        "recordType": "A",
        "cugCurrencyCode": "INR"
    },
    {
        "airportCity": "Agra",
        "airportCode": "AGR",
        "airportName": "Kheria Airport",
        "countryCode": "IN",
        "countryName": "India",
        "latitude": 27.15831,
        "longitude": 77.96278,
        "recordType": "A",
        "cugCurrencyCode": "INR"
    },
    {
        "airportCity": "Aguadilla",
        "airportCode": "BQN",
        "airportName": "Rafael Hernandez",
        "countryCode": "US",
        "countryName": "United States",
        "latitude": 18.4949,
        "longitude": -67.129402,
        "recordType": "A",
        "cugCurrencyCode": "USD"
    },
    {
        "airportCity": "Ahmedabad",
        "airportCode": "AMD",
        "airportName": "Sardar Vallabhbhai Patel International Airport",
        "countryCode": "IN",
        "countryName": "India",
        "latitude": 23.07458,
        "longitude": 72.62365,
        "recordType": "A",
        "cugCurrencyCode": "INR"
    },
    {
        "airportCity": "Akron",
        "airportCode": "CAK",
        "airportName": "Akron-Canton Airport",
        "countryCode": "US",
        "countryName": "United States",
        "latitude": 40.91462,
        "longitude": -81.436672,
        "recordType": "A",
        "cugCurrencyCode": "USD"
    },
    {
        "airportCity": "Al Ain",
        "airportCode": "AAN",
        "airportName": "Al Ain International Airport",
        "countryCode": "AE",
        "countryName": "United Arab Emirates",
        "latitude": 24.2617,
        "longitude": 55.6092,
        "recordType": "A",
        "cugCurrencyCode": "AED"
    },
    {
        "airportCity": "Albany",
        "airportCode": "ALB",
        "airportName": "Albany International Airport",
        "countryCode": "US",
        "countryName": "United States",
        "latitude": 42.748299,
        "longitude": -73.801697,
        "recordType": "A",
        "cugCurrencyCode": "USD"
    },
    {
        "airportCity": "Albuquerque",
        "airportCode": "ABQ",
        "airportName": "International Sunport",
        "countryCode": "US",
        "countryName": "United States",
        "latitude": 35.040199,
        "longitude": -106.609001,
        "recordType": "A",
        "cugCurrencyCode": "USD"
    },
    {
        "airportCity": "Alexandria",
        "airportCode": "ALY",
        "airportName": "Alexandria International Airport",
        "countryCode": "IS",
        "countryName": "Iceland",
        "latitude": 31.192291,
        "longitude": 29.953143,
        "recordType": "A",
        "cugCurrencyCode": "INR"
    },
    {
        "airportCity": "Algiers",
        "airportCode": "ALG",
        "airportName": "Houari Boumedienne Airport",
        "countryCode": "AZ",
        "countryName": "Algeria",
        "latitude": 36.697848,
        "longitude": 3.206819,
        "recordType": "A",
        "cugCurrencyCode": "EUR"
    },
    {
        "airportCity": "Alicante",
        "airportCode": "ALC",
        "airportName": "Alicante Airport",
        "countryCode": "ES",
        "countryName": "Spain",
        "latitude": 38.2822,
        "longitude": -0.558156,
        "recordType": "A",
        "cugCurrencyCode": "EUR"
    },
    {
        "airportCity": "Alice Springs",
        "airportCode": "ASP",
        "airportName": "Alice Springs Airport",
        "countryCode": "AU",
        "countryName": "Australia",
        "latitude": -23.806588,
        "longitude": 133.903427,
        "recordType": "A",
        "cugCurrencyCode": "AUD"
    },
    {
        "airportCity": "Allentown",
        "airportCode": "ABE",
        "airportName": "Lehigh Valley International",
        "countryCode": "US",
        "countryName": "United States",
        "latitude": 40.6521,
        "longitude": -75.440804,
        "recordType": "A",
        "cugCurrencyCode": "USD"
    },
    {
        "airportCity": "All German Rail Stations",
        "airportCode": "QYG",
        "airportName": "All German Rail Stations",
        "countryCode": "DE",
        "countryName": "Germany",
        "latitude": 52.31901,
        "longitude": 9.96042,
        "recordType": "A",
        "cugCurrencyCode": "EUR"
    },
    {
        "airportCity": "Amman",
        "airportCode": "AMM",
        "airportName": "Queen Alia International Airport",
        "countryCode": "JO",
        "countryName": "Jordan",
        "latitude": 31.722248,
        "longitude": 35.986723,
        "recordType": "A",
        "cugCurrencyCode": "INR"
    },
    {
        "airportCity": "Amritsar",
        "airportCode": "ATQ",
        "airportName": "Sri Guru Ram Das Jee International Airport",
        "countryCode": "IN",
        "countryName": "India",
        "latitude": 31.70249,
        "longitude": 74.79807,
        "recordType": "A",
        "cugCurrencyCode": "INR"
    },
    {
        "airportCity": "Amsterdam",
        "airportCode": "AMS",
        "airportName": "Amsterdam Airport Schiphol",
        "countryCode": "NL",
        "countryName": "Netherlands",
        "latitude": 52.30806,
        "longitude": 4.76417,
        "recordType": "A",
        "cugCurrencyCode": "EUR"
    },
    {
        "airportCity": "Anchorage",
        "airportCode": "ANC",
        "airportName": "Ted Stevens International",
        "countryCode": "US",
        "countryName": "United States",
        "latitude": 61.1744,
        "longitude": -149.996002,
        "recordType": "A",
        "cugCurrencyCode": "USD"
    },
    {
        "airportCity": "Anchorage",
        "airportCode": "MRI",
        "airportName": "Merrill field",
        "countryCode": "US",
        "countryName": "United States",
        "latitude": 61.213501,
        "longitude": -149.843994,
        "recordType": "A",
        "cugCurrencyCode": "USD"
    },
    {
        "airportCity": "Angeles City",
        "airportCode": "CRK",
        "airportName": "Clark International Airport",
        "countryCode": "PH",
        "countryName": "Philippines",
        "latitude": 15.188118,
        "longitude": 120.549677,
        "recordType": "A",
        "cugCurrencyCode": "INR"
    },
    {
        "airportCity": "Antananarivo",
        "airportCode": "TNR",
        "airportName": "Ivato International Airport",
        "countryCode": "MG",
        "countryName": "Madagascar",
        "latitude": -18.7992,
        "longitude": 47.47523,
        "recordType": "A",
        "cugCurrencyCode": "USD"
    },
    {
        "airportCity": "Antwerp",
        "airportCode": "ZWE",
        "airportName": "Antwerpen-Centraal railway station",
        "countryCode": "BE",
        "countryName": "Belgium",
        "latitude": 51.2169,
        "longitude": 4.4212,
        "recordType": "R",
        "cugCurrencyCode": "EUR"
    },
    {
        "airportCity": "Apia",
        "airportCode": "APW",
        "airportName": "Faleolo International Airport",
        "countryCode": "WS",
        "countryName": "Samoa",
        "latitude": -13.83,
        "longitude": -172.007996,
        "recordType": "A",
        "cugCurrencyCode": "INR"
    },
    {
        "airportCity": "Appleton",
        "airportCode": "ATW",
        "airportName": "Outagamie County",
        "countryCode": "US",
        "countryName": "United States",
        "latitude": 44.258099,
        "longitude": -88.519096,
        "recordType": "A",
        "cugCurrencyCode": "USD"
    },
    {
        "airportCity": "Arcata/Eureka",
        "airportCode": "ACV",
        "airportName": "Arcata Airport",
        "countryCode": "US",
        "countryName": "United States",
        "latitude": 40.978101,
        "longitude": -124.109,
        "recordType": "A",
        "cugCurrencyCode": "USD"
    },
    {
        "airportCity": "Asheville/Hendersonv",
        "airportCode": "AVL",
        "airportName": "Asheville Regional",
        "countryCode": "US",
        "countryName": "United States",
        "latitude": 35.436199,
        "longitude": -82.541801,
        "recordType": "A",
        "cugCurrencyCode": "USD"
    },
    {
        "airportCity": "Asmara",
        "airportCode": "ASM",
        "airportName": "Asmara International Airport",
        "countryCode": "ER",
        "countryName": "Eritrea",
        "latitude": 15.285,
        "longitude": 38.901667,
        "recordType": "A",
        "cugCurrencyCode": "USD"
    },
    {
        "airportCity": "Aspen",
        "airportCode": "ASE",
        "airportName": "Pitkin County",
        "countryCode": "US",
        "countryName": "United States",
        "latitude": 39.223202,
        "longitude": -106.869003,
        "recordType": "A",
        "cugCurrencyCode": "USD"
    },
    {
        "airportCity": "Assiut",
        "airportCode": "ATZ",
        "airportName": "Assiut Airport",
        "countryCode": "EG",
        "countryName": "Egypt",
        "latitude": 27.05,
        "longitude": 31.0154,
        "recordType": "A",
        "cugCurrencyCode": "INR"
    },
    {
        "airportCity": "Aswan",
        "airportCode": "ASW",
        "airportName": "Aswan International Airport",
        "countryCode": "EG",
        "countryName": "Egypt",
        "latitude": 23.9664,
        "longitude": 32.8245,
        "recordType": "A",
        "cugCurrencyCode": "INR"
    },
    {
        "airportCity": "Athens",
        "airportCode": "ATH",
        "airportName": "Eleftherios Venizelos",
        "countryCode": "GR",
        "countryName": "Greece",
        "latitude": 37.936401,
        "longitude": 23.9445,
        "recordType": "A",
        "cugCurrencyCode": "EUR"
    },
    {
        "airportCity": "Atlanta",
        "airportCode": "ATL",
        "airportName": "Hartsfield Jackson International",
        "countryCode": "US",
        "countryName": "United States",
        "latitude": 33.6367,
        "longitude": -84.428101,
        "recordType": "A",
        "cugCurrencyCode": "USD"
    },
    {
        "airportCity": "Atlanta",
        "airportCode": "PDK",
        "airportName": "Dekalb Peachtree",
        "countryCode": "US",
        "countryName": "United States",
        "latitude": 33.875599,
        "longitude": -84.302002,
        "recordType": "A",
        "cugCurrencyCode": "USD"
    },
    {
        "airportCity": "Auckland",
        "airportCode": "AKL",
        "airportName": "Auckland Airport",
        "countryCode": "NZ",
        "countryName": "New Zealand",
        "latitude": -37.01199,
        "longitude": 174.786331,
        "recordType": "A",
        "cugCurrencyCode": "INR"
    },
    {
        "airportCity": "Aurangabad",
        "airportCode": "IXU",
        "airportName": "Chikkalthana Airport",
        "countryCode": "IN",
        "countryName": "India",
        "latitude": 19.87617,
        "longitude": 75.34331,
        "recordType": "A",
        "cugCurrencyCode": "INR"
    },
    {
        "airportCity": "Austin",
        "airportCode": "AUS",
        "airportName": "Austin Bergstrom International",
        "countryCode": "US",
        "countryName": "United States",
        "latitude": 30.1945,
        "longitude": -97.669899,
        "recordType": "A",
        "cugCurrencyCode": "USD"
    },
    {
        "airportCity": "Ayodhya Dham",
        "airportCode": "AYJ",
        "airportName": "Maharishi Valmiki International Airport",
        "countryCode": "IN",
        "countryName": "India",
        "latitude": 26.7533,
        "longitude": 82.1502,
        "recordType": "A",
        "cugCurrencyCode": "INR"
    },
    {
        "airportCity": "Bagdogra",
        "airportCode": "IXB",
        "airportName": "Bagdogra Airport",
        "countryCode": "IN",
        "countryName": "India",
        "latitude": 26.68503,
        "longitude": 88.32549,
        "recordType": "A",
        "cugCurrencyCode": "INR"
    },
    {
        "airportCity": "Bahrain",
        "airportCode": "BAH",
        "airportName": "Bahrain International Airport",
        "countryCode": "BH",
        "countryName": "Bahrain",
        "latitude": 26.27083,
        "longitude": 50.63361,
        "recordType": "A",
        "cugCurrencyCode": "BHD"
    },
    {
        "airportCity": "Bakersfield",
        "airportCode": "BFL",
        "airportName": "Meadows Field",
        "countryCode": "US",
        "countryName": "United States",
        "latitude": 35.433601,
        "longitude": -119.056999,
        "recordType": "A",
        "cugCurrencyCode": "USD"
    },
    {
        "airportCity": "Baku",
        "airportCode": "GYD",
        "airportName": "Heydar Aliyev International Airport",
        "countryCode": "AZ",
        "countryName": "Azerbaijan",
        "latitude": 40.465229,
        "longitude": 50.05219,
        "recordType": "A",
        "cugCurrencyCode": "EUR"
    },
    {
        "airportCity": "Ballina",
        "airportCode": "BNK",
        "airportName": "Ballina Byron Gateway Airport",
        "countryCode": "AU",
        "countryName": "Australia",
        "latitude": -28.833236,
        "longitude": 153.561471,
        "recordType": "A",
        "cugCurrencyCode": "AUD"
    },
    {
        "airportCity": "Baltimore",
        "airportCode": "BWI",
        "airportName": "Baltimore/Washington International",
        "countryCode": "US",
        "countryName": "United States",
        "latitude": 39.1754,
        "longitude": -76.668297,
        "recordType": "A",
        "cugCurrencyCode": "USD"
    },
    {
        "airportCity": "Bamako",
        "airportCode": "BKO",
        "airportName": "Bamako–Sénou International Airport",
        "countryCode": "ML",
        "countryName": "Mali",
        "latitude": 12.540926,
        "longitude": -7.947951,
        "recordType": "A",
        "cugCurrencyCode": "INR"
    },
    {
        "airportCity": "Bandar Seri Begawan",
        "airportCode": "BWN",
        "airportName": "Brunei International Airport",
        "countryCode": "BN",
        "countryName": "Brunei",
        "latitude": 4.943981,
        "longitude": 114.9316,
        "recordType": "A",
        "cugCurrencyCode": "USD"
    },
    {
        "airportCity": "Bandung",
        "airportCode": "BDO",
        "airportName": "Husein Sastranegara International Airport",
        "countryCode": "ID",
        "countryName": "Indonesia",
        "latitude": -6.90063,
        "longitude": 107.575996,
        "recordType": "A",
        "cugCurrencyCode": "INR"
    },
    {
        "airportCity": "Bangkok",
        "airportCode": "BKK",
        "airportName": "Suvarnabhumi International Airport",
        "countryCode": "TH",
        "countryName": "Thailand",
        "latitude": 13.69242,
        "longitude": 100.75089,
        "recordType": "A",
        "cugCurrencyCode": "THB"
    },
    {
        "airportCity": "Barcelona",
        "airportCode": "BCN",
        "airportName": "Barcelona Airport",
        "countryCode": "ES",
        "countryName": "Spain",
        "latitude": 41.2971,
        "longitude": 2.07846,
        "recordType": "A",
        "cugCurrencyCode": "EUR"
    },
    {
        "airportCity": "Bari",
        "airportCode": "BAU",
        "airportName": "Bari Centrale Railway Station",
        "countryCode": "IT",
        "countryName": "Italy",
        "latitude": 41.0705,
        "longitude": 16.5212,
        "recordType": "A",
        "cugCurrencyCode": "EUR"
    },
    {
        "airportCity": "Basel",
        "airportCode": "ZBA",
        "airportName": "Basel SBB",
        "countryCode": "DE",
        "countryName": "Germany",
        "latitude": 47.547107,
        "longitude": 7.588775,
        "recordType": "R",
        "cugCurrencyCode": "EUR"
    },
    {
        "airportCity": "Basel",
        "airportCode": "ZDH",
        "airportName": "Basel SBB Railway Station",
        "countryCode": "CH",
        "countryName": "Switzerland",
        "latitude": 47.547589,
        "longitude": 7.589662,
        "recordType": "R",
        "cugCurrencyCode": "INR"
    },
    {
        "airportCity": "Bath",
        "airportCode": "QQX",
        "airportName": "Bath Spa Railway Station",
        "countryCode": "GB",
        "countryName": "United Kingdom",
        "latitude": 51.3777,
        "longitude": 2.357,
        "recordType": "R",
        "cugCurrencyCode": "GBP"
    },
    {
        "airportCity": "Beijing",
        "airportCode": "BJS",
        "airportName": "Beijing - All Airports",
        "countryCode": "CN",
        "countryName": "China",
        "latitude": 39.916668,
        "longitude": 116.383331,
        "recordType": "A",
        "cugCurrencyCode": "INR"
    },
    {
        "airportCity": "Beijing, Beijing Municipality",
        "airportCode": "PEK",
        "airportName": "Beijing Capital International Airport",
        "countryCode": "CN",
        "countryName": "China",
        "latitude": 40.080101,
        "longitude": 116.584999,
        "recordType": "A",
        "cugCurrencyCode": "INR"
    },
    {
        "airportCity": "Beirut",
        "airportCode": "BEY",
        "airportName": "Beirut-Rafic Hariri International Airport",
        "countryCode": "LB",
        "countryName": "Lebanon",
        "latitude": 33.819376,
        "longitude": 35.491204,
        "recordType": "A",
        "cugCurrencyCode": "USD"
    },
    {
        "airportCity": "Belgaum",
        "airportCode": "IXG",
        "airportName": "Belgaum Airport",
        "countryCode": "IN",
        "countryName": "India",
        "latitude": 15.861,
        "longitude": 74.613,
        "recordType": "A",
        "cugCurrencyCode": "INR"
    },
    {
        "airportCity": "Bengaluru",
        "airportCode": "BLR",
        "airportName": "Kempegowda International Airport",
        "countryCode": "IN",
        "countryName": "India",
        "latitude": 13.20076,
        "longitude": 77.7095,
        "recordType": "A",
        "cugCurrencyCode": "INR"
    },
    {
        "airportCity": "Benghazi",
        "airportCode": "BEN",
        "airportName": "Benina International Airport",
        "countryCode": "LY",
        "countryName": "Libya",
        "latitude": 32.0975,
        "longitude": 20.270833,
        "recordType": "A",
        "cugCurrencyCode": "INR"
    },
    {
        "airportCity": "Bergen",
        "airportCode": "BGO",
        "airportName": "Bergen Airport",
        "countryCode": "NO",
        "countryName": "Norway",
        "latitude": 60.2918,
        "longitude": 5.222,
        "recordType": "A",
        "cugCurrencyCode": "INR"
    },
    {
        "airportCity": "Berlin",
        "airportCode": "BER",
        "airportName": "Berlin Brandenburg Airport",
        "countryCode": "DE",
        "countryName": "Germany",
        "latitude": 52.3513,
        "longitude": 13.4938,
        "recordType": "A",
        "cugCurrencyCode": "EUR"
    },
    {
        "airportCity": "Berlin",
        "airportCode": "TXL",
        "airportName": "Berlin Tegel Airport",
        "countryCode": "DE",
        "countryName": "Germany",
        "latitude": 52.55869,
        "longitude": 13.28861,
        "recordType": "A",
        "cugCurrencyCode": "EUR"
    },
    {
        "airportCity": "Berlinn",
        "airportCode": "QPP",
        "airportName": "Berlin Central",
        "countryCode": "DE",
        "countryName": "Germany",
        "latitude": 52.524176,
        "longitude": 13.368072,
        "recordType": "R",
        "cugCurrencyCode": "EUR"
    },
    {
        "airportCity": "Bern",
        "airportCode": "ZDJ",
        "airportName": "Bern Railway Station",
        "countryCode": "CH",
        "countryName": "Switzerland",
        "latitude": 46.94772,
        "longitude": 7.440366,
        "recordType": "R",
        "cugCurrencyCode": "INR"
    },
    {
        "airportCity": "Bhopal",
        "airportCode": "BHO",
        "airportName": "Raja Bhoj Airport",
        "countryCode": "IN",
        "countryName": "India",
        "latitude": 23.29097,
        "longitude": 77.33562,
        "recordType": "A",
        "cugCurrencyCode": "INR"
    },
    {
        "airportCity": "Bhubaneswar",
        "airportCode": "BBI",
        "airportName": "Biju Patnaik International Airport",
        "countryCode": "IN",
        "countryName": "India",
        "latitude": 20.25339,
        "longitude": 85.81722,
        "recordType": "A",
        "cugCurrencyCode": "INR"
    },
    {
        "airportCity": "Bhuj",
        "airportCode": "BHJ",
        "airportName": "Bhuj Airport",
        "countryCode": "IN",
        "countryName": "India",
        "latitude": 23.24199,
        "longitude": 69.66693,
        "recordType": "A",
        "cugCurrencyCode": "INR"
    },
    {
        "airportCity": "Billings",
        "airportCode": "BIL",
        "airportName": "Logan International",
        "countryCode": "US",
        "countryName": "United States",
        "latitude": 45.807701,
        "longitude": -108.542999,
        "recordType": "A",
        "cugCurrencyCode": "USD"
    },
    {
        "airportCity": "Binghamton",
        "airportCode": "BGM",
        "airportName": "Greater Binghamton",
        "countryCode": "US",
        "countryName": "United States",
        "latitude": 42.208698,
        "longitude": -75.979797,
        "recordType": "A",
        "cugCurrencyCode": "USD"
    },
    {
        "airportCity": "Birmingham",
        "airportCode": "BHM",
        "airportName": "Shuttlesworth International",
        "countryCode": "US",
        "countryName": "United States",
        "latitude": 33.562901,
        "longitude": -86.753502,
        "recordType": "A",
        "cugCurrencyCode": "USD"
    },
    {
        "airportCity": "Birmingham",
        "airportCode": "BHX",
        "airportName": "Birmingham International Airport",
        "countryCode": "GB",
        "countryName": "United Kingdom",
        "latitude": 52.45238,
        "longitude": -1.74351,
        "recordType": "A",
        "cugCurrencyCode": "GBP"
    },
    {
        "airportCity": "Birmingham",
        "airportCode": "QQN",
        "airportName": "Birmingham New Street Railway",
        "countryCode": "GB",
        "countryName": "United Kingdom",
        "latitude": 52.477673,
        "longitude": -1.898821,
        "recordType": "R",
        "cugCurrencyCode": "GBP"
    },
    {
        "airportCity": "Birmingham",
        "airportCode": "ZBC",
        "airportName": "Colmore Row Bus Station",
        "countryCode": "GB",
        "countryName": "United Kingdom",
        "latitude": 52.4833,
        "longitude": 1.9,
        "recordType": "B",
        "cugCurrencyCode": "GBP"
    },
    {
        "airportCity": "Bismarck",
        "airportCode": "BIS",
        "airportName": "Bismarck Municipal Airport",
        "countryCode": "US",
        "countryName": "United States",
        "latitude": 46.77229,
        "longitude": -100.750378,
        "recordType": "A",
        "cugCurrencyCode": "USD"
    },
    {
        "airportCity": "Blantyre",
        "airportCode": "BLZ",
        "airportName": "Chileka International Airport",
        "countryCode": "MW",
        "countryName": "Malawi",
        "latitude": -15.679203,
        "longitude": 34.967697,
        "recordType": "A",
        "cugCurrencyCode": "USD"
    },
    {
        "airportCity": "Bogota",
        "airportCode": "BOG",
        "airportName": "El Dorado International Airport",
        "countryCode": "CO",
        "countryName": "Colombia",
        "latitude": 4.701412,
        "longitude": -74.1444,
        "recordType": "A",
        "cugCurrencyCode": "USD"
    },
    {
        "airportCity": "Boise",
        "airportCode": "BOI",
        "airportName": "Air Term Gowen Field",
        "countryCode": "US",
        "countryName": "United States",
        "latitude": 43.5644,
        "longitude": -116.223,
        "recordType": "A",
        "cugCurrencyCode": "USD"
    },
    {
        "airportCity": "Bologna",
        "airportCode": "BLQ",
        "airportName": "Bologna Guglielmo Marconi Airport",
        "countryCode": "IT",
        "countryName": "Italy",
        "latitude": 44.5354,
        "longitude": 11.2887,
        "recordType": "A",
        "cugCurrencyCode": "EUR"
    },
    {
        "airportCity": "Bologna",
        "airportCode": "IBT",
        "airportName": "Bologna Central Railway Station",
        "countryCode": "IT",
        "countryName": "Italy",
        "latitude": 44.5056,
        "longitude": 11.3431,
        "recordType": "A",
        "cugCurrencyCode": "EUR"
    },
    {
        "airportCity": "Bordeaux",
        "airportCode": "BOD",
        "airportName": "Bordeaux-Mérignac Airport",
        "countryCode": "FR",
        "countryName": "France",
        "latitude": 44.8283,
        "longitude": -0.715556,
        "recordType": "A",
        "cugCurrencyCode": "EUR"
    },
    {
        "airportCity": "Boston",
        "airportCode": "BOS",
        "airportName": "Edward L. Logan International Airport",
        "countryCode": "US",
        "countryName": "United States",
        "latitude": 42.3643,
        "longitude": -71.005203,
        "recordType": "A",
        "cugCurrencyCode": "USD"
    },
    {
        "airportCity": "Bouguenais",
        "airportCode": "NTE",
        "airportName": "Nantes Atlantique Airport",
        "countryCode": "FR",
        "countryName": "France",
        "latitude": 47.153198,
        "longitude": -1.61073,
        "recordType": "A",
        "cugCurrencyCode": "EUR"
    },
    {
        "airportCity": "Bournemouth",
        "airportCode": "BOH",
        "airportName": "Bournemouth Airport",
        "countryCode": "GB",
        "countryName": "United Kingdom",
        "latitude": 50.781,
        "longitude": 1.841,
        "recordType": "A",
        "cugCurrencyCode": "GBP"
    },
    {
        "airportCity": "Bozeman",
        "airportCode": "BZN",
        "airportName": "Yellowstone International",
        "countryCode": "US",
        "countryName": "United States",
        "latitude": 45.7775,
        "longitude": -111.153,
        "recordType": "A",
        "cugCurrencyCode": "USD"
    },
    {
        "airportCity": "Bradford",
        "airportCode": "ZFC",
        "airportName": "Bradford Coach Station",
        "countryCode": "GB",
        "countryName": "United Kingdom",
        "latitude": 53.7912,
        "longitude": 1.7511,
        "recordType": "B",
        "cugCurrencyCode": "GBP"
    },
    {
        "airportCity": "Brazzaville",
        "airportCode": "BZV",
        "airportName": "Maya Airport",
        "countryCode": "CD",
        "countryName": "Democratic Republic of Congo",
        "latitude": -4.258899,
        "longitude": 15.251139,
        "recordType": "A",
        "cugCurrencyCode": "USD"
    },
    {
        "airportCity": "Bregenz",
        "airportCode": "XGZ",
        "airportName": "Bregenz Railway Station",
        "countryCode": "AT",
        "countryName": "Austria",
        "latitude": 47.5008,
        "longitude": 9.74231,
        "recordType": "R",
        "cugCurrencyCode": "EUR"
    },
    {
        "airportCity": "Bremen",
        "airportCode": "BRE",
        "airportName": "Bremen Airport",
        "countryCode": "DE",
        "countryName": "Germany",
        "latitude": 53.0736,
        "longitude": 8.8064,
        "recordType": "A",
        "cugCurrencyCode": "EUR"
    },
    {
        "airportCity": "Bremen",
        "airportCode": "DHC",
        "airportName": "Bremen Central",
        "countryCode": "DE",
        "countryName": "Germany",
        "latitude": 53.57845,
        "longitude": 8.58443,
        "recordType": "R",
        "cugCurrencyCode": "EUR"
    },
    {
        "airportCity": "Brescia",
        "airportCode": "BRZ",
        "airportName": "Brescia Railway Station",
        "countryCode": "IT",
        "countryName": "Italy",
        "latitude": 45.538,
        "longitude": 10.2117,
        "recordType": "A",
        "cugCurrencyCode": "EUR"
    },
    {
        "airportCity": "Bridgwater",
        "airportCode": "UBW",
        "airportName": "Bridgwater Railway Station",
        "countryCode": "GB",
        "countryName": "United Kingdom",
        "latitude": 51.1278,
        "longitude": 2.9904,
        "recordType": "R",
        "cugCurrencyCode": "GBP"
    },
    {
        "airportCity": "Brighton",
        "airportCode": "BSH",
        "airportName": "Brighton Railway Station",
        "countryCode": "GB",
        "countryName": "United Kingdom",
        "latitude": 50.82,
        "longitude": 0.18,
        "recordType": "R",
        "cugCurrencyCode": "GBP"
    },
    {
        "airportCity": "Brindisi",
        "airportCode": "BQD",
        "airportName": "Brindisi Railway Station",
        "countryCode": "IT",
        "countryName": "Italy",
        "latitude": 40.6374,
        "longitude": 17.936,
        "recordType": "A",
        "cugCurrencyCode": "EUR"
    },
    {
        "airportCity": "Brisbane",
        "airportCode": "BNE",
        "airportName": "Brisbane Airport",
        "countryCode": "AU",
        "countryName": "Australia",
        "latitude": 27.3942,
        "longitude": 153.1218,
        "recordType": "A",
        "cugCurrencyCode": "AUD"
    },
    {
        "airportCity": "Bristol",
        "airportCode": "BRS",
        "airportName": "Bristol International Airport",
        "countryCode": "GB",
        "countryName": "United Kingdom",
        "latitude": 51.3831,
        "longitude": 2.7172,
        "recordType": "A",
        "cugCurrencyCode": "GBP"
    },
    {
        "airportCity": "Bristol Parkway",
        "airportCode": "BPR",
        "airportName": "Parkway Railway Station",
        "countryCode": "GB",
        "countryName": "United Kingdom",
        "latitude": 51.3311,
        "longitude": 1.3623,
        "recordType": "R",
        "cugCurrencyCode": "GBP"
    },
    {
        "airportCity": "Bristol Temple Meads",
        "airportCode": "TPB",
        "airportName": "Temple Meads Railway Station",
        "countryCode": "GB",
        "countryName": "United Kingdom",
        "latitude": 51.4497,
        "longitude": 2.5811,
        "recordType": "R",
        "cugCurrencyCode": "GBP"
    },
    {
        "airportCity": "Brno",
        "airportCode": "ZDN",
        "airportName": "Brno Railway Station",
        "countryCode": "CZ",
        "countryName": "Czech Republic",
        "latitude": 49.1908,
        "longitude": 16.6126,
        "recordType": "R",
        "cugCurrencyCode": "EUR"
    },
    {
        "airportCity": "Broome",
        "airportCode": "BME",
        "airportName": "Broome International Airport",
        "countryCode": "AU",
        "countryName": "Australia",
        "latitude": -17.948789,
        "longitude": 122.227407,
        "recordType": "A",
        "cugCurrencyCode": "AUD"
    },
    {
        "airportCity": "Brussels",
        "airportCode": "BRU",
        "airportName": "Brussels Airport",
        "countryCode": "BE",
        "countryName": "Belgium",
        "latitude": 50.901,
        "longitude": 4.4856,
        "recordType": "A",
        "cugCurrencyCode": "EUR"
    },
    {
        "airportCity": "Brussels",
        "airportCode": "ZYR",
        "airportName": "Brussels-South Railway Station",
        "countryCode": "BE",
        "countryName": "Belgium",
        "latitude": 50.8361,
        "longitude": 4.3355,
        "recordType": "R",
        "cugCurrencyCode": "EUR"
    },
    {
        "airportCity": "Bucharest",
        "airportCode": "OTP",
        "airportName": "Henri Coandă International Airport",
        "countryCode": "RO",
        "countryName": "Romania",
        "latitude": 44.5707,
        "longitude": 26.0844,
        "recordType": "A",
        "cugCurrencyCode": "EUR"
    },
    {
        "airportCity": "Budapest",
        "airportCode": "BUD",
        "airportName": "Budapest Ferenc Liszt International Airport",
        "countryCode": "HU",
        "countryName": "Hungary",
        "latitude": 47.42976,
        "longitude": 19.261093,
        "recordType": "A",
        "cugCurrencyCode": "INR"
    },
    {
        "airportCity": "Budapest",
        "airportCode": "XXQ",
        "airportName": "Keleti Railway Station",
        "countryCode": "HU",
        "countryName": "Hungary",
        "latitude": 47.5004,
        "longitude": 19.084,
        "recordType": "R",
        "cugCurrencyCode": "INR"
    },
    {
        "airportCity": "Buffalo",
        "airportCode": "BUF",
        "airportName": "Niagara International",
        "countryCode": "US",
        "countryName": "United States",
        "latitude": 42.940498,
        "longitude": -78.732201,
        "recordType": "A",
        "cugCurrencyCode": "USD"
    },
    {
        "airportCity": "Bujumbura",
        "airportCode": "BJM",
        "airportName": "Bujumbura International Airport",
        "countryCode": "BI",
        "countryName": "Burundi",
        "latitude": -3.319189,
        "longitude": 29.320621,
        "recordType": "A",
        "cugCurrencyCode": "USD"
    },
    {
        "airportCity": "Bukhara",
        "airportCode": "BHK",
        "airportName": "Bukhara Airport",
        "countryCode": "UZ",
        "countryName": "Uzbekistan",
        "latitude": 39.775,
        "longitude": 64.4823,
        "recordType": "A",
        "cugCurrencyCode": "EUR"
    },
    {
        "airportCity": "Buon Me Thuot",
        "airportCode": "BMV",
        "airportName": "Buon Ma Thuot Airport",
        "countryCode": "VN",
        "countryName": "Vietnam",
        "latitude": 12.664702,
        "longitude": 108.117596,
        "recordType": "A",
        "cugCurrencyCode": "USD"
    },
    {
        "airportCity": "Buraidah",
        "airportCode": "ELQ",
        "airportName": "Prince Nayef bin Abdulaziz International Airport",
        "countryCode": "SA",
        "countryName": "Saudi Arabia",
        "latitude": 26.3028,
        "longitude": 43.773889,
        "recordType": "A",
        "cugCurrencyCode": "SAR"
    },
    {
        "airportCity": "Burbank",
        "airportCode": "BUR",
        "airportName": "Bob Hope Airport",
        "countryCode": "US",
        "countryName": "United States",
        "latitude": 34.200699,
        "longitude": -118.359001,
        "recordType": "A",
        "cugCurrencyCode": "USD"
    },
    {
        "airportCity": "Burgas",
        "airportCode": "BOJ",
        "airportName": "Burgas Airport",
        "countryCode": "BG",
        "countryName": "Bulgaria",
        "latitude": 42.5657,
        "longitude": 27.5165,
        "recordType": "A",
        "cugCurrencyCode": "EUR"
    },
    {
        "airportCity": "Burlington",
        "airportCode": "BTV",
        "airportName": "Burlington International Airport",
        "countryCode": "US",
        "countryName": "United States",
        "latitude": 44.471901,
        "longitude": -73.153297,
        "recordType": "A",
        "cugCurrencyCode": "USD"
    },
    {
        "airportCity": "Busan",
        "airportCode": "PUS",
        "airportName": "Gimhae International Airport",
        "countryCode": "KR",
        "countryName": "South Korea",
        "latitude": 35.17322,
        "longitude": 128.946459,
        "recordType": "A",
        "cugCurrencyCode": "KRW"
    },
    {
        "airportCity": "Cairns",
        "airportCode": "CNS",
        "airportName": "Cairns Airport",
        "countryCode": "AU",
        "countryName": "Australia",
        "latitude": -16.885799,
        "longitude": 145.755005,
        "recordType": "A",
        "cugCurrencyCode": "AUD"
    },
    {
        "airportCity": "Cairo",
        "airportCode": "CAI",
        "airportName": "Cairo International Airport",
        "countryCode": "EG",
        "countryName": "Egypt",
        "latitude": 30.11,
        "longitude": 31.41,
        "recordType": "A",
        "cugCurrencyCode": "INR"
    },
    {
        "airportCity": "Calgary",
        "airportCode": "YYC",
        "airportName": "Calgary International Airport",
        "countryCode": "CA",
        "countryName": "Canada",
        "latitude": 51.12506,
        "longitude": -114.016,
        "recordType": "A",
        "cugCurrencyCode": "CAD"
    },
    {
        "airportCity": "Cambridge",
        "airportCode": "CBG",
        "airportName": "Cambridge Airport",
        "countryCode": "GB",
        "countryName": "United Kingdom",
        "latitude": 52.2102,
        "longitude": 0.1734,
        "recordType": "A",
        "cugCurrencyCode": "GBP"
    },
    {
        "airportCity": "Canberra",
        "airportCode": "CBR",
        "airportName": "Canberra  International Airport",
        "countryCode": "AU",
        "countryName": "Australia",
        "latitude": -35.3069,
        "longitude": 149.195007,
        "recordType": "A",
        "cugCurrencyCode": "AUD"
    },
    {
        "airportCity": "Cancun",
        "airportCode": "CUN",
        "airportName": "Cancun International Airport",
        "countryCode": "MX",
        "countryName": "Mexico",
        "latitude": 21.039444,
        "longitude": -86.874304,
        "recordType": "A",
        "cugCurrencyCode": "USD"
    },
    {
        "airportCity": "Can Tho",
        "airportCode": "VCA",
        "airportName": "Can Tho International Airport",
        "countryCode": "VN",
        "countryName": "Vietnam",
        "latitude": 10.047222,
        "longitude": 105.76639,
        "recordType": "A",
        "cugCurrencyCode": "USD"
    },
    {
        "airportCity": "Cape Town",
        "airportCode": "CPT",
        "airportName": "Cape Town International Airport",
        "countryCode": "ZA",
        "countryName": "South Africa",
        "latitude": 33.9715,
        "longitude": 18.6021,
        "recordType": "A",
        "cugCurrencyCode": "INR"
    },
    {
        "airportCity": "Cardiff",
        "airportCode": "CFW",
        "airportName": "Cardiff Railway Station",
        "countryCode": "GB",
        "countryName": "United Kingdom",
        "latitude": 51.4761,
        "longitude": 3.179,
        "recordType": "R",
        "cugCurrencyCode": "GBP"
    },
    {
        "airportCity": "Cardiff",
        "airportCode": "CWL",
        "airportName": "Cardiff Airport",
        "countryCode": "GB",
        "countryName": "United Kingdom",
        "latitude": 51.3971,
        "longitude": 3.3428,
        "recordType": "A",
        "cugCurrencyCode": "GBP"
    },
    {
        "airportCity": "Carlisle",
        "airportCode": "CAX",
        "airportName": "Carlisle Lake District Airport",
        "countryCode": "GB",
        "countryName": "United Kingdom",
        "latitude": 54.9358,
        "longitude": 2.8055,
        "recordType": "A",
        "cugCurrencyCode": "GBP"
    },
    {
        "airportCity": "Caserta",
        "airportCode": "CTJ",
        "airportName": "Caserta Railway Station",
        "countryCode": "IT",
        "countryName": "Italy",
        "latitude": 41.071,
        "longitude": 14.3317,
        "recordType": "A",
        "cugCurrencyCode": "EUR"
    },
    {
        "airportCity": "Casper",
        "airportCode": "CPR",
        "airportName": "Natrona County International",
        "countryCode": "US",
        "countryName": "United States",
        "latitude": 42.908001,
        "longitude": -106.463997,
        "recordType": "A",
        "cugCurrencyCode": "USD"
    },
    {
        "airportCity": "Cedar Rapids",
        "airportCode": "CID",
        "airportName": "The Eastern Iowa",
        "countryCode": "US",
        "countryName": "United States",
        "latitude": 41.884701,
        "longitude": -91.7108,
        "recordType": "A",
        "cugCurrencyCode": "USD"
    },
    {
        "airportCity": "Chandigarh",
        "airportCode": "IXC",
        "airportName": "Chandigarh International Airport",
        "countryCode": "IN",
        "countryName": "India",
        "latitude": 30.67083,
        "longitude": 76.80132,
        "recordType": "A",
        "cugCurrencyCode": "INR"
    },
    {
        "airportCity": "Changsha",
        "airportCode": "CSX",
        "airportName": "Changsha Huanghua International Airport",
        "countryCode": "CN",
        "countryName": "China",
        "latitude": 28.196667,
        "longitude": 113.220833,
        "recordType": "A",
        "cugCurrencyCode": "INR"
    },
    {
        "airportCity": "Charleston",
        "airportCode": "CHS",
        "airportName": "Charleston International Airport",
        "countryCode": "US",
        "countryName": "United States",
        "latitude": 32.89427,
        "longitude": -80.038159,
        "recordType": "A",
        "cugCurrencyCode": "USD"
    },
    {
        "airportCity": "Charleston",
        "airportCode": "CRW",
        "airportName": "Yeager",
        "countryCode": "US",
        "countryName": "United States",
        "latitude": 38.3731,
        "longitude": -81.593201,
        "recordType": "A",
        "cugCurrencyCode": "USD"
    },
    {
        "airportCity": "Charleville",
        "airportCode": "CTL",
        "airportName": "Charleville Airport",
        "countryCode": "AU",
        "countryName": "Australia",
        "latitude": -26.414803,
        "longitude": 146.260601,
        "recordType": "A",
        "cugCurrencyCode": "AUD"
    },
    {
        "airportCity": "Charlotte",
        "airportCode": "CLT",
        "airportName": "Douglas International",
        "countryCode": "US",
        "countryName": "United States",
        "latitude": 35.214001,
        "longitude": -80.9431,
        "recordType": "A",
        "cugCurrencyCode": "USD"
    },
    {
        "airportCity": "Charlottesville",
        "airportCode": "CHO",
        "airportName": "Albemarle",
        "countryCode": "US",
        "countryName": "United States",
        "latitude": 38.138599,
        "longitude": -78.452904,
        "recordType": "A",
        "cugCurrencyCode": "USD"
    },
    {
        "airportCity": "Chengdu",
        "airportCode": "CTU",
        "airportName": "Chengdu Shuangliu International Airport",
        "countryCode": "CN",
        "countryName": "China",
        "latitude": 30.558257,
        "longitude": 103.945966,
        "recordType": "A",
        "cugCurrencyCode": "INR"
    },
    {
        "airportCity": "Chennai",
        "airportCode": "MAA",
        "airportName": "Chennai International Airport",
        "countryCode": "IN",
        "countryName": "India",
        "latitude": 12.98163,
        "longitude": 80.16205,
        "recordType": "A",
        "cugCurrencyCode": "INR"
    },
    {
        "airportCity": "Chiang Mai",
        "airportCode": "CNX",
        "airportName": "Chiang Mai International Airport",
        "countryCode": "TH",
        "countryName": "Thailand",
        "latitude": 18.7668,
        "longitude": 98.962601,
        "recordType": "A",
        "cugCurrencyCode": "THB"
    },
    {
        "airportCity": "Chiang Rai",
        "airportCode": "CEI",
        "airportName": "Mae Fah Luang–Chiang Rai International Airport",
        "countryCode": "TH",
        "countryName": "Thailand",
        "latitude": 19.952299,
        "longitude": 99.882896,
        "recordType": "A",
        "cugCurrencyCode": "THB"
    },
    {
        "airportCity": "Chicago",
        "airportCode": "ORD",
        "airportName": "Chicago O'Hare International Airport",
        "countryCode": "US",
        "countryName": "United States",
        "latitude": 41.98032,
        "longitude": -87.90231,
        "recordType": "A",
        "cugCurrencyCode": "USD"
    },
    {
        "airportCity": "Chicago, Illinois",
        "airportCode": "CHI",
        "airportName": "Chicago - All Airports",
        "countryCode": "US",
        "countryName": "United States",
        "latitude": 41.883611,
        "longitude": -87.631667,
        "recordType": "A",
        "cugCurrencyCode": "USD"
    },
    {
        "airportCity": "Chico",
        "airportCode": "CIC",
        "airportName": "Chico Municipal Airport",
        "countryCode": "US",
        "countryName": "United States",
        "latitude": 39.79909,
        "longitude": -121.854673,
        "recordType": "A",
        "cugCurrencyCode": "USD"
    },
    {
        "airportCity": "Chongqing",
        "airportCode": "CKG",
        "airportName": "Chongqing Jiangbei International Airport",
        "countryCode": "CN",
        "countryName": "China",
        "latitude": 29.712254,
        "longitude": 106.651895,
        "recordType": "A",
        "cugCurrencyCode": "INR"
    },
    {
        "airportCity": "Christchurch",
        "airportCode": "CHC",
        "airportName": "Christchurch International Airport",
        "countryCode": "NZ",
        "countryName": "New Zealand",
        "latitude": -43.489399,
        "longitude": 172.531998,
        "recordType": "A",
        "cugCurrencyCode": "INR"
    },
    {
        "airportCity": "Chu Lai",
        "airportCode": "VCL",
        "airportName": "Chu Lai International Airport",
        "countryCode": "VN",
        "countryName": "Vietnam",
        "latitude": 15.40871,
        "longitude": 108.704498,
        "recordType": "A",
        "cugCurrencyCode": "USD"
    },
    {
        "airportCity": "Chur",
        "airportCode": "ZDT",
        "airportName": "Chur Railway Station",
        "countryCode": "CH",
        "countryName": "Switzerland",
        "latitude": 46.8535,
        "longitude": 9.5297,
        "recordType": "R",
        "cugCurrencyCode": "INR"
    },
    {
        "airportCity": "Cincinnati",
        "airportCode": "CVG",
        "airportName": "Northern Kentucky International",
        "countryCode": "US",
        "countryName": "United States",
        "latitude": 39.048801,
        "longitude": -84.667801,
        "recordType": "A",
        "cugCurrencyCode": "USD"
    },
    {
        "airportCity": "Cincinnati",
        "airportCode": "LUK",
        "airportName": "Muncipal Lunken Field",
        "countryCode": "US",
        "countryName": "United States",
        "latitude": 39.103298,
        "longitude": -84.418602,
        "recordType": "A",
        "cugCurrencyCode": "USD"
    },
    {
        "airportCity": "Cleveland",
        "airportCode": "BKL",
        "airportName": "Burke Lakefront",
        "countryCode": "US",
        "countryName": "United States",
        "latitude": 41.517502,
        "longitude": -81.683296,
        "recordType": "A",
        "cugCurrencyCode": "USD"
    },
    {
        "airportCity": "Cleveland",
        "airportCode": "CLE",
        "airportName": "Hopkins International",
        "countryCode": "US",
        "countryName": "United States",
        "latitude": 41.411701,
        "longitude": -81.8498,
        "recordType": "A",
        "cugCurrencyCode": "USD"
    },
    {
        "airportCity": "Cody",
        "airportCode": "COD",
        "airportName": "Yellowstone Regional",
        "countryCode": "US",
        "countryName": "United States",
        "latitude": 44.520199,
        "longitude": -109.024002,
        "recordType": "A",
        "cugCurrencyCode": "USD"
    },
    {
        "airportCity": "Coffs Harbour",
        "airportCode": "CFS",
        "airportName": "Coffs Harbour Airport",
        "countryCode": "AU",
        "countryName": "Australia",
        "latitude": -30.320601,
        "longitude": 153.115997,
        "recordType": "A",
        "cugCurrencyCode": "AUD"
    },
    {
        "airportCity": "Coimbatore",
        "airportCode": "CJB",
        "airportName": "Coimbatore International Airport",
        "countryCode": "IN",
        "countryName": "India",
        "latitude": 11.03023,
        "longitude": 77.03891,
        "recordType": "A",
        "cugCurrencyCode": "INR"
    },
    {
        "airportCity": "College Station",
        "airportCode": "CLL",
        "airportName": "Easterwood Field",
        "countryCode": "US",
        "countryName": "United States",
        "latitude": 30.5886,
        "longitude": -96.3638,
        "recordType": "A",
        "cugCurrencyCode": "USD"
    },
    {
        "airportCity": "Cologne",
        "airportCode": "QKL",
        "airportName": "Cologne Central",
        "countryCode": "DE",
        "countryName": "Germany",
        "latitude": 50.943214,
        "longitude": 6.958602,
        "recordType": "R",
        "cugCurrencyCode": "EUR"
    },
    {
        "airportCity": "Colombo",
        "airportCode": "CMB",
        "airportName": "Bandaranaike International Airport",
        "countryCode": "LK",
        "countryName": "Sri Lanka",
        "latitude": 7.17022,
        "longitude": 79.88292,
        "recordType": "A",
        "cugCurrencyCode": "USD"
    },
    {
        "airportCity": "Colorado Springs",
        "airportCode": "COS",
        "airportName": "Colorado Springs Muncipal",
        "countryCode": "US",
        "countryName": "United States",
        "latitude": 38.805801,
        "longitude": -104.700996,
        "recordType": "A",
        "cugCurrencyCode": "USD"
    },
    {
        "airportCity": "Columbia",
        "airportCode": "CAE",
        "airportName": "Metropolitan Airport",
        "countryCode": "US",
        "countryName": "United States",
        "latitude": 33.938801,
        "longitude": -81.119499,
        "recordType": "A",
        "cugCurrencyCode": "USD"
    },
    {
        "airportCity": "Columbia",
        "airportCode": "COU",
        "airportName": "Columbia Regional",
        "countryCode": "US",
        "countryName": "United States",
        "latitude": 38.8181,
        "longitude": -92.219597,
        "recordType": "A",
        "cugCurrencyCode": "USD"
    },
    {
        "airportCity": "Columbus",
        "airportCode": "CMH",
        "airportName": "John Glenn International",
        "countryCode": "US",
        "countryName": "United States",
        "latitude": 39.998001,
        "longitude": -82.891899,
        "recordType": "A",
        "cugCurrencyCode": "USD"
    },
    {
        "airportCity": "Columbus",
        "airportCode": "LCK",
        "airportName": "Rickenbacker International",
        "countryCode": "US",
        "countryName": "United States",
        "latitude": 39.813801,
        "longitude": -82.927803,
        "recordType": "A",
        "cugCurrencyCode": "USD"
    },
    {
        "airportCity": "Coolangatta",
        "airportCode": "OOL",
        "airportName": "Gold Coast Airport",
        "countryCode": "AU",
        "countryName": "Australia",
        "latitude": -28.165962,
        "longitude": 153.506641,
        "recordType": "A",
        "cugCurrencyCode": "AUD"
    },
    {
        "airportCity": "Copenhagen",
        "airportCode": "CPH",
        "airportName": "Copenhagen Airport",
        "countryCode": "DK",
        "countryName": "Denmark",
        "latitude": 55.62956,
        "longitude": 12.63926,
        "recordType": "A",
        "cugCurrencyCode": "DKK"
    },
    {
        "airportCity": "Cotonou",
        "airportCode": "COO",
        "airportName": "Cotonou International Airport",
        "countryCode": "BJ",
        "countryName": "Benin",
        "latitude": 6.356111,
        "longitude": 2.383333,
        "recordType": "A",
        "cugCurrencyCode": "USD"
    },
    {
        "airportCity": "Coventry",
        "airportCode": "CVT",
        "airportName": "Coventry Airport",
        "countryCode": "GB",
        "countryName": "United Kingdom",
        "latitude": 52.3728,
        "longitude": 1.4809,
        "recordType": "A",
        "cugCurrencyCode": "GBP"
    },
    {
        "airportCity": "Crescent City",
        "airportCode": "CEC",
        "airportName": "Del Norte County Regional",
        "countryCode": "US",
        "countryName": "United States",
        "latitude": 41.780201,
        "longitude": -124.237,
        "recordType": "A",
        "cugCurrencyCode": "USD"
    },
    {
        "airportCity": "Crewe",
        "airportCode": "XVC",
        "airportName": "Crewe Railway Station",
        "countryCode": "GB",
        "countryName": "United Kingdom",
        "latitude": 53.0895,
        "longitude": 2.4336,
        "recordType": "R",
        "cugCurrencyCode": "GBP"
    },
    {
        "airportCity": "Daegu",
        "airportCode": "TAE",
        "airportName": "Daegu International Airport",
        "countryCode": "KR",
        "countryName": "South Korea",
        "latitude": 35.899487,
        "longitude": 128.638387,
        "recordType": "A",
        "cugCurrencyCode": "KRW"
    },
    {
        "airportCity": "Dalat",
        "airportCode": "DLI",
        "airportName": "Lien Khuong Airport",
        "countryCode": "VN",
        "countryName": "Vietnam",
        "latitude": 11.752054,
        "longitude": 108.372577,
        "recordType": "A",
        "cugCurrencyCode": "USD"
    },
    {
        "airportCity": "Dalian",
        "airportCode": "DLC",
        "airportName": "Dalian Zhoushuizi International Airport",
        "countryCode": "CN",
        "countryName": "China",
        "latitude": 38.962417,
        "longitude": 121.542352,
        "recordType": "A",
        "cugCurrencyCode": "INR"
    },
    {
        "airportCity": "Dallas",
        "airportCode": "DAL",
        "airportName": "Dallas Love field",
        "countryCode": "US",
        "countryName": "United States",
        "latitude": 32.847099,
        "longitude": -96.851799,
        "recordType": "A",
        "cugCurrencyCode": "USD"
    },
    {
        "airportCity": "Dallas",
        "airportCode": "DFW",
        "airportName": "Dallas Ft Worth International",
        "countryCode": "US",
        "countryName": "United States",
        "latitude": 32.896801,
        "longitude": -97.038002,
        "recordType": "A",
        "cugCurrencyCode": "USD"
    },
    {
        "airportCity": "Dammam",
        "airportCode": "DMM",
        "airportName": "King Fahd International Airport",
        "countryCode": "SA",
        "countryName": "Saudi Arabia",
        "latitude": 26.47056,
        "longitude": 49.79833,
        "recordType": "A",
        "cugCurrencyCode": "SAR"
    },
    {
        "airportCity": "Da Nang",
        "airportCode": "DAD",
        "airportName": "Đà Nẵng International Airport",
        "countryCode": "VN",
        "countryName": "Vietnam",
        "latitude": 16.0439,
        "longitude": 108.198997,
        "recordType": "A",
        "cugCurrencyCode": "USD"
    },
    {
        "airportCity": "Dar Es Salaam",
        "airportCode": "DAR",
        "airportName": "Julius Nyerere International Airport",
        "countryCode": "TZ",
        "countryName": "Tanzania",
        "latitude": -6.87353,
        "longitude": 39.20211,
        "recordType": "A",
        "cugCurrencyCode": "EUR"
    },
    {
        "airportCity": "Darwin",
        "airportCode": "DRW",
        "airportName": "Darwin International Airport",
        "countryCode": "AU",
        "countryName": "Australia",
        "latitude": -12.41497,
        "longitude": 130.88185,
        "recordType": "A",
        "cugCurrencyCode": "AUD"
    },
    {
        "airportCity": "Davao City",
        "airportCode": "DVO",
        "airportName": "Francisco Bangoy International Airport",
        "countryCode": "PH",
        "countryName": "Philippines",
        "latitude": 7.12552,
        "longitude": 125.646004,
        "recordType": "A",
        "cugCurrencyCode": "INR"
    },
    {
        "airportCity": "Dayton",
        "airportCode": "DAY",
        "airportName": "James M Cox International",
        "countryCode": "US",
        "countryName": "United States",
        "latitude": 39.902401,
        "longitude": -84.219398,
        "recordType": "A",
        "cugCurrencyCode": "USD"
    },
    {
        "airportCity": "Dehra Dun",
        "airportCode": "DED",
        "airportName": "Jolly Grant Airport",
        "countryCode": "IN",
        "countryName": "India",
        "latitude": 30.19005,
        "longitude": 78.18043,
        "recordType": "A",
        "cugCurrencyCode": "INR"
    },
    {
        "airportCity": "Delhi",
        "airportCode": "DEL",
        "airportName": "Indira Gandhi International Airport",
        "countryCode": "IN",
        "countryName": "India",
        "latitude": 28.56115,
        "longitude": 77.12177,
        "recordType": "A",
        "cugCurrencyCode": "INR"
    },
    {
        "airportCity": "Denpasar Bali",
        "airportCode": "DPS",
        "airportName": "Ngurah Rai International Airport",
        "countryCode": "ID",
        "countryName": "Indonesia",
        "latitude": -8.74817,
        "longitude": 115.167,
        "recordType": "A",
        "cugCurrencyCode": "INR"
    },
    {
        "airportCity": "Denver",
        "airportCode": "BJC",
        "airportName": "Rocky Mountain Metropolitan",
        "countryCode": "US",
        "countryName": "United States",
        "latitude": 39.908798,
        "longitude": -105.116997,
        "recordType": "A",
        "cugCurrencyCode": "USD"
    },
    {
        "airportCity": "Denver",
        "airportCode": "DEN",
        "airportName": "Denver International Airport",
        "countryCode": "US",
        "countryName": "United States",
        "latitude": 39.84931,
        "longitude": -104.67383,
        "recordType": "A",
        "cugCurrencyCode": "USD"
    },
    {
        "airportCity": "Des Moines",
        "airportCode": "DSM",
        "airportName": "Des Moines International Airport",
        "countryCode": "US",
        "countryName": "United States",
        "latitude": 41.53413,
        "longitude": -93.658796,
        "recordType": "A",
        "cugCurrencyCode": "USD"
    },
    {
        "airportCity": "Detroit",
        "airportCode": "DTT",
        "airportName": "Detroit - All Airports",
        "countryCode": "US",
        "countryName": "United States",
        "latitude": 42.348495,
        "longitude": -83.060303,
        "recordType": "A",
        "cugCurrencyCode": "USD"
    },
    {
        "airportCity": "Detroit",
        "airportCode": "DTW",
        "airportName": "Detroit Metropolitan Wayne County",
        "countryCode": "US",
        "countryName": "United States",
        "latitude": 42.20834,
        "longitude": -83.35718,
        "recordType": "A",
        "cugCurrencyCode": "USD"
    },
    {
        "airportCity": "Devonport",
        "airportCode": "DPO",
        "airportName": "Devonport Airport",
        "countryCode": "AU",
        "countryName": "Australia",
        "latitude": -41.169701,
        "longitude": 146.429993,
        "recordType": "A",
        "cugCurrencyCode": "AUD"
    },
    {
        "airportCity": "Dhaka",
        "airportCode": "DAC",
        "airportName": "Shahjalal International Airport",
        "countryCode": "BD",
        "countryName": "Bangladesh",
        "latitude": 23.84307,
        "longitude": 90.40545,
        "recordType": "A",
        "cugCurrencyCode": "USD"
    },
    {
        "airportCity": "Dibrugarh",
        "airportCode": "DIB",
        "airportName": "Mohanbari Airport",
        "countryCode": "IN",
        "countryName": "India",
        "latitude": 27.48485,
        "longitude": 95.02158,
        "recordType": "A",
        "cugCurrencyCode": "INR"
    },
    {
        "airportCity": "Dimapur",
        "airportCode": "DMU",
        "airportName": "Dimapur Airport",
        "countryCode": "IN",
        "countryName": "India",
        "latitude": 25.8837,
        "longitude": 93.7693,
        "recordType": "A",
        "cugCurrencyCode": "INR"
    },
    {
        "airportCity": "Doha",
        "airportCode": "DOH",
        "airportName": "Hamad International Airport",
        "countryCode": "QA",
        "countryName": "Qatar",
        "latitude": 25.2606,
        "longitude": 51.6138,
        "recordType": "A",
        "cugCurrencyCode": "QAR"
    },
    {
        "airportCity": "Douala",
        "airportCode": "DLA",
        "airportName": "Douala International Airport",
        "countryCode": "CM",
        "countryName": "Cameroon",
        "latitude": 4.01346,
        "longitude": 9.717018,
        "recordType": "A",
        "cugCurrencyCode": "INR"
    },
    {
        "airportCity": "Dresden",
        "airportCode": "DRS",
        "airportName": "Dresden Airport",
        "countryCode": "DE",
        "countryName": "Germany",
        "latitude": 51.1328,
        "longitude": 13.7672,
        "recordType": "A",
        "cugCurrencyCode": "EUR"
    },
    {
        "airportCity": "Dresden",
        "airportCode": "XIR",
        "airportName": "Dresden Central",
        "countryCode": "DE",
        "countryName": "Germany",
        "latitude": 51.040528,
        "longitude": 13.731537,
        "recordType": "R",
        "cugCurrencyCode": "EUR"
    },
    {
        "airportCity": "Dubai",
        "airportCode": "DXB",
        "airportName": "Dubai International Airport",
        "countryCode": "AE",
        "countryName": "United Arab Emirates",
        "latitude": 24.8952,
        "longitude": 55.1387,
        "recordType": "A",
        "cugCurrencyCode": "AED"
    },
    {
        "airportCity": "Dublin",
        "airportCode": "DUB",
        "airportName": "Dublin Airport",
        "countryCode": "IE",
        "countryName": "Ireland",
        "latitude": 53.4264,
        "longitude": -6.2499,
        "recordType": "A",
        "cugCurrencyCode": "EUR"
    },
    {
        "airportCity": "Dubrovnik",
        "airportCode": "DBV",
        "airportName": "Dubrovnik Airport",
        "countryCode": "HR",
        "countryName": "Croatia",
        "latitude": 42.5611,
        "longitude": 18.2681,
        "recordType": "A",
        "cugCurrencyCode": "EUR"
    },
    {
        "airportCity": "Durango",
        "airportCode": "DRO",
        "airportName": "La Plata County",
        "countryCode": "US",
        "countryName": "United States",
        "latitude": 37.151501,
        "longitude": -107.753998,
        "recordType": "A",
        "cugCurrencyCode": "USD"
    },
    {
        "airportCity": "Durban",
        "airportCode": "DUR",
        "airportName": "King Shaka International Airport",
        "countryCode": "ZA",
        "countryName": "South Africa",
        "latitude": 29.61,
        "longitude": 31.1169,
        "recordType": "A",
        "cugCurrencyCode": "INR"
    },
    {
        "airportCity": "Durgapur",
        "airportCode": "RDP",
        "airportName": "Kazi Nazrul Islam Airport",
        "countryCode": "IN",
        "countryName": "India",
        "latitude": 23.52044,
        "longitude": 87.31192,
        "recordType": "A",
        "cugCurrencyCode": "INR"
    },
    {
        "airportCity": "Dusseldorf",
        "airportCode": "DUS",
        "airportName": "Dusseldorf International Airport",
        "countryCode": "DE",
        "countryName": "Germany",
        "latitude": 51.27846,
        "longitude": 6.76819,
        "recordType": "A",
        "cugCurrencyCode": "EUR"
    },
    {
        "airportCity": "Dusseldorf",
        "airportCode": "QDU",
        "airportName": "Dusseldorf Central",
        "countryCode": "DE",
        "countryName": "Germany",
        "latitude": 51.220319,
        "longitude": 6.792765,
        "recordType": "R",
        "cugCurrencyCode": "EUR"
    },
    {
        "airportCity": "Dzaoudzi",
        "airportCode": "DZA",
        "airportName": "Dzaoudzi Pamandzi International Airport",
        "countryCode": "YT",
        "countryName": "Mayotte",
        "latitude": -12.807053,
        "longitude": 45.281528,
        "recordType": "A",
        "cugCurrencyCode": "EUR"
    },
    {
        "airportCity": "Eau Claire",
        "airportCode": "EAU",
        "airportName": "Chippewa Valley Regional",
        "countryCode": "US",
        "countryName": "United States",
        "latitude": 44.865799,
        "longitude": -91.484299,
        "recordType": "A",
        "cugCurrencyCode": "USD"
    },
    {
        "airportCity": "Edinburgh",
        "airportCode": "EDI",
        "airportName": "Edinburgh",
        "countryCode": "GB",
        "countryName": "United Kingdom",
        "latitude": 55.95078,
        "longitude": -3.36145,
        "recordType": "A",
        "cugCurrencyCode": "GBP"
    },
    {
        "airportCity": "Edinburgh",
        "airportCode": "ZXE",
        "airportName": "Waverley Railway Station",
        "countryCode": "GB",
        "countryName": "United Kingdom",
        "latitude": 55.9524,
        "longitude": 3.1883,
        "recordType": "R",
        "cugCurrencyCode": "GBP"
    },
    {
        "airportCity": "Edmonton",
        "airportCode": "YEG",
        "airportName": "Edmonton International",
        "countryCode": "CA",
        "countryName": "Canada",
        "latitude": 53.3097,
        "longitude": -113.580002,
        "recordType": "A",
        "cugCurrencyCode": "CAD"
    },
    {
        "airportCity": "Edmonton, Alberta",
        "airportCode": "YEA",
        "airportName": "Edmonton - All Airports",
        "countryCode": "CA",
        "countryName": "Canada",
        "latitude": 53.5461,
        "longitude": -113.4937,
        "recordType": "A",
        "cugCurrencyCode": "CAD"
    },
    {
        "airportCity": "El Paso",
        "airportCode": "ELP",
        "airportName": "El Paso International",
        "countryCode": "US",
        "countryName": "United States",
        "latitude": 31.807199,
        "longitude": -106.377998,
        "recordType": "A",
        "cugCurrencyCode": "USD"
    },
    {
        "airportCity": "Entebbe",
        "airportCode": "EBB",
        "airportName": "Entebbe International Airport",
        "countryCode": "UG",
        "countryName": "Uganda",
        "latitude": 0.0436,
        "longitude": 32.4418,
        "recordType": "A",
        "cugCurrencyCode": "USD"
    },
    {
        "airportCity": "Eugene",
        "airportCode": "EUG",
        "airportName": "Mahlon Sweet Field",
        "countryCode": "US",
        "countryName": "United States",
        "latitude": 44.124599,
        "longitude": -123.211998,
        "recordType": "A",
        "cugCurrencyCode": "USD"
    },
    {
        "airportCity": "Exeter",
        "airportCode": "EXS",
        "airportName": "Saint Thomas Railway Station",
        "countryCode": "GB",
        "countryName": "United Kingdom",
        "latitude": 50.7172,
        "longitude": 3.5388,
        "recordType": "R",
        "cugCurrencyCode": "GBP"
    },
    {
        "airportCity": "Exeter",
        "airportCode": "EXT",
        "airportName": "Exeter International Airport",
        "countryCode": "GB",
        "countryName": "United Kingdom",
        "latitude": 50.735,
        "longitude": 3.4153,
        "recordType": "A",
        "cugCurrencyCode": "GBP"
    },
    {
        "airportCity": "Fairbanks",
        "airportCode": "FAI",
        "airportName": "Fairbanks International",
        "countryCode": "US",
        "countryName": "United States",
        "latitude": 64.815102,
        "longitude": -147.856003,
        "recordType": "A",
        "cugCurrencyCode": "USD"
    },
    {
        "airportCity": "Falmouth",
        "airportCode": "UFM",
        "airportName": "Falmouth Railway Station",
        "countryCode": "GB",
        "countryName": "United Kingdom",
        "latitude": 50.1484,
        "longitude": 5.0647,
        "recordType": "R",
        "cugCurrencyCode": "GBP"
    },
    {
        "airportCity": "Fargo",
        "airportCode": "FAR",
        "airportName": "Hector International",
        "countryCode": "US",
        "countryName": "United States",
        "latitude": 46.9207,
        "longitude": -96.815804,
        "recordType": "A",
        "cugCurrencyCode": "USD"
    },
    {
        "airportCity": "Faro",
        "airportCode": "FAO",
        "airportName": "Faro Airport",
        "countryCode": "PT",
        "countryName": "Portugal",
        "latitude": 37.014401,
        "longitude": -7.96591,
        "recordType": "A",
        "cugCurrencyCode": "EUR"
    },
    {
        "airportCity": "Fayetteville Springd.",
        "airportCode": "XNA",
        "airportName": "Northwest Arkansas Region",
        "countryCode": "US",
        "countryName": "United States",
        "latitude": 36.281898,
        "longitude": -94.306801,
        "recordType": "A",
        "cugCurrencyCode": "USD"
    },
    {
        "airportCity": "Fergana",
        "airportCode": "FEG",
        "airportName": "Fergana Airport",
        "countryCode": "UZ",
        "countryName": "Uzbekistan",
        "latitude": 40.3588,
        "longitude": 71.745,
        "recordType": "A",
        "cugCurrencyCode": "EUR"
    },
    {
        "airportCity": "Florence",
        "airportCode": "FIR",
        "airportName": "Firenze C.M. Railway Station",
        "countryCode": "IT",
        "countryName": "Italy",
        "latitude": 43.7777,
        "longitude": 11.2542,
        "recordType": "A",
        "cugCurrencyCode": "EUR"
    },
    {
        "airportCity": "Florence",
        "airportCode": "FLR",
        "airportName": "Florence Airport",
        "countryCode": "IT",
        "countryName": "Italy",
        "latitude": 43.810001,
        "longitude": 11.2051,
        "recordType": "A",
        "cugCurrencyCode": "EUR"
    },
    {
        "airportCity": "Florence",
        "airportCode": "ZMS",
        "airportName": "S.M. Novella Railway Station",
        "countryCode": "IT",
        "countryName": "Italy",
        "latitude": 43.7767,
        "longitude": 11.248,
        "recordType": "A",
        "cugCurrencyCode": "EUR"
    },
    {
        "airportCity": "Foggia",
        "airportCode": "FOI",
        "airportName": "Foggia Railway Station",
        "countryCode": "IT",
        "countryName": "Italy",
        "latitude": 41.458,
        "longitude": 15.5446,
        "recordType": "A",
        "cugCurrencyCode": "EUR"
    },
    {
        "airportCity": "Fontanarossa Vincenzo Bellini",
        "airportCode": "CTA",
        "airportName": "Catania-Fontanarossa Airport",
        "countryCode": "IT",
        "countryName": "Italy",
        "latitude": 37.4673,
        "longitude": 15.065775,
        "recordType": "A",
        "cugCurrencyCode": "EUR"
    },
    {
        "airportCity": "Fort Lauderdale",
        "airportCode": "FLL",
        "airportName": "FLL International",
        "countryCode": "US",
        "countryName": "United States",
        "latitude": 26.072599,
        "longitude": -80.152702,
        "recordType": "A",
        "cugCurrencyCode": "USD"
    },
    {
        "airportCity": "Fort Lauderdale",
        "airportCode": "FXE",
        "airportName": "Executive",
        "countryCode": "US",
        "countryName": "United States",
        "latitude": 26.1973,
        "longitude": -80.1707,
        "recordType": "A",
        "cugCurrencyCode": "USD"
    },
    {
        "airportCity": "Fort Myers",
        "airportCode": "FMY",
        "airportName": "Page Field",
        "countryCode": "US",
        "countryName": "United States",
        "latitude": 26.586599,
        "longitude": -81.863297,
        "recordType": "A",
        "cugCurrencyCode": "USD"
    },
    {
        "airportCity": "Fort Myers",
        "airportCode": "RSW",
        "airportName": "Southwest Florida International",
        "countryCode": "US",
        "countryName": "United States",
        "latitude": 26.5362,
        "longitude": -81.755203,
        "recordType": "A",
        "cugCurrencyCode": "USD"
    },
    {
        "airportCity": "Fort Wayne",
        "airportCode": "FWA",
        "airportName": "Fort Wayne International Airport",
        "countryCode": "US",
        "countryName": "United States",
        "latitude": 40.98646,
        "longitude": -85.188148,
        "recordType": "A",
        "cugCurrencyCode": "USD"
    },
    {
        "airportCity": "Frankfurt",
        "airportCode": "FRA",
        "airportName": "Frankfurt Main International Airport",
        "countryCode": "DE",
        "countryName": "Germany",
        "latitude": 50.03776,
        "longitude": 8.55915,
        "recordType": "A",
        "cugCurrencyCode": "EUR"
    },
    {
        "airportCity": "Frankfurt",
        "airportCode": "ZRB",
        "airportName": "Frankfurt-Main Hauptbahnhof Airport",
        "countryCode": "DE",
        "countryName": "Germany",
        "latitude": 50.1071,
        "longitude": 8.6638,
        "recordType": "A",
        "cugCurrencyCode": "EUR"
    },
    {
        "airportCity": "Fredericton, New Brunswick",
        "airportCode": "YFC",
        "airportName": "Fredericton International Airport",
        "countryCode": "CA",
        "countryName": "Canada",
        "latitude": 45.8689,
        "longitude": -66.537201,
        "recordType": "A",
        "cugCurrencyCode": "CAD"
    },
    {
        "airportCity": "Fresno",
        "airportCode": "FAT",
        "airportName": "Yosemite International",
        "countryCode": "US",
        "countryName": "United States",
        "latitude": 36.776199,
        "longitude": -119.718002,
        "recordType": "A",
        "cugCurrencyCode": "USD"
    },
    {
        "airportCity": "Fribourg",
        "airportCode": "ZHF",
        "airportName": "Fribourg Railway Station",
        "countryCode": "CH",
        "countryName": "Switzerland",
        "latitude": 46.8032,
        "longitude": 7.1512,
        "recordType": "R",
        "cugCurrencyCode": "INR"
    },
    {
        "airportCity": "Fukuoka",
        "airportCode": "FUK",
        "airportName": "Fukuoka Airport",
        "countryCode": "JP",
        "countryName": "Japan",
        "latitude": 33.585899,
        "longitude": 130.451004,
        "recordType": "A",
        "cugCurrencyCode": "JPY"
    },
    {
        "airportCity": "Gaborone",
        "airportCode": "GBE",
        "airportName": "Sir Seretse Khama International Airport",
        "countryCode": "BW",
        "countryName": "Botswana",
        "latitude": -24.5558,
        "longitude": 25.91888,
        "recordType": "A",
        "cugCurrencyCode": "INR"
    },
    {
        "airportCity": "Gaya",
        "airportCode": "GAY",
        "airportName": "Bodhgaya Airport",
        "countryCode": "IN",
        "countryName": "India",
        "latitude": 24.74897,
        "longitude": 84.94384,
        "recordType": "A",
        "cugCurrencyCode": "INR"
    },
    {
        "airportCity": "Geneva",
        "airportCode": "GVA",
        "airportName": "Geneva Airport",
        "countryCode": "CH",
        "countryName": "Switzerland",
        "latitude": 46.2363,
        "longitude": 6.1057,
        "recordType": "A",
        "cugCurrencyCode": "INR"
    },
    {
        "airportCity": "Genoa",
        "airportCode": "GEP",
        "airportName": "Brignole Railway Station",
        "countryCode": "IT",
        "countryName": "Italy",
        "latitude": 44.405,
        "longitude": 8.9478,
        "recordType": "A",
        "cugCurrencyCode": "EUR"
    },
    {
        "airportCity": "Genoa",
        "airportCode": "GPP",
        "airportName": "Piazza Principe Railway Station",
        "countryCode": "IT",
        "countryName": "Italy",
        "latitude": 44.4191,
        "longitude": 8.9178,
        "recordType": "A",
        "cugCurrencyCode": "EUR"
    },
    {
        "airportCity": "George Best Belfast",
        "airportCode": "BHD",
        "airportName": "George Best Belfast City Airport",
        "countryCode": "GB",
        "countryName": "United Kingdom",
        "latitude": 54.6176,
        "longitude": -5.87183,
        "recordType": "A",
        "cugCurrencyCode": "GBP"
    },
    {
        "airportCity": "Georgetown",
        "airportCode": "GEO",
        "airportName": "Cheddi Jagan International Airport",
        "countryCode": "GY",
        "countryName": "Guyana",
        "latitude": 6.49855,
        "longitude": -58.254101,
        "recordType": "A",
        "cugCurrencyCode": "USD"
    },
    {
        "airportCity": "George Town",
        "airportCode": "PEN",
        "airportName": "Penang International Airport",
        "countryCode": "MY",
        "countryName": "Malaysia",
        "latitude": 5.29714,
        "longitude": 100.277,
        "recordType": "A",
        "cugCurrencyCode": "INR"
    },
    {
        "airportCity": "Ghaziabad",
        "airportCode": "HDO",
        "airportName": "Hindon Airport",
        "countryCode": "IN",
        "countryName": "India",
        "latitude": 28.70579,
        "longitude": 77.342137,
        "recordType": "A",
        "cugCurrencyCode": "INR"
    },
    {
        "airportCity": "Glasgow",
        "airportCode": "GLA",
        "airportName": "Glasgow International Airport",
        "countryCode": "GB",
        "countryName": "United Kingdom",
        "latitude": 55.8691,
        "longitude": -4.435053,
        "recordType": "A",
        "cugCurrencyCode": "GBP"
    },
    {
        "airportCity": "Glasgow",
        "airportCode": "ZGG",
        "airportName": "Glasgow Central Station",
        "countryCode": "GB",
        "countryName": "United Kingdom",
        "latitude": 55.859112,
        "longitude": -4.258109,
        "recordType": "R",
        "cugCurrencyCode": "GBP"
    },
    {
        "airportCity": "Gloucester",
        "airportCode": "GLO",
        "airportName": "Gloucestershire Airport",
        "countryCode": "GB",
        "countryName": "United Kingdom",
        "latitude": 51.8929,
        "longitude": 2.1578,
        "recordType": "A",
        "cugCurrencyCode": "GBP"
    },
    {
        "airportCity": "Goa",
        "airportCode": "GOI",
        "airportName": "Dabolim Airport",
        "countryCode": "IN",
        "countryName": "India",
        "latitude": 15.38056,
        "longitude": 73.83306,
        "recordType": "A",
        "cugCurrencyCode": "INR"
    },
    {
        "airportCity": "Goa",
        "airportCode": "GOX",
        "airportName": "Mopa Airport",
        "countryCode": "IN",
        "countryName": "India",
        "latitude": 15.7318,
        "longitude": 73.8681,
        "recordType": "A",
        "cugCurrencyCode": "INR"
    },
    {
        "airportCity": "Gothenburg",
        "airportCode": "GOT",
        "airportName": "Göteborg Landvetter Airport",
        "countryCode": "SE",
        "countryName": "Sweden",
        "latitude": 57.6628,
        "longitude": 12.2798,
        "recordType": "A",
        "cugCurrencyCode": "INR"
    },
    {
        "airportCity": "Grande Prairie, Alberta",
        "airportCode": "YQU",
        "airportName": "Grande Prairie Airport",
        "countryCode": "CA",
        "countryName": "Canada",
        "latitude": 55.179699,
        "longitude": -118.885002,
        "recordType": "A",
        "cugCurrencyCode": "CAD"
    },
    {
        "airportCity": "Grand Junction",
        "airportCode": "GJT",
        "airportName": "Grand Junction Regional Airport",
        "countryCode": "US",
        "countryName": "United States",
        "latitude": 39.1241,
        "longitude": -108.526039,
        "recordType": "A",
        "cugCurrencyCode": "USD"
    },
    {
        "airportCity": "Grand Rapids",
        "airportCode": "GRR",
        "airportName": "Gerald R Ford International",
        "countryCode": "US",
        "countryName": "United States",
        "latitude": 42.880798,
        "longitude": -85.522797,
        "recordType": "A",
        "cugCurrencyCode": "USD"
    },
    {
        "airportCity": "Graz",
        "airportCode": "GGZ",
        "airportName": "Graz Hauptbahnhof",
        "countryCode": "AT",
        "countryName": "Austria",
        "latitude": 47.07289,
        "longitude": 15.417046,
        "recordType": "R",
        "cugCurrencyCode": "EUR"
    },
    {
        "airportCity": "Green Bay",
        "airportCode": "GRB",
        "airportName": "Austin Straubel International",
        "countryCode": "US",
        "countryName": "United States",
        "latitude": 44.4851,
        "longitude": -88.129601,
        "recordType": "A",
        "cugCurrencyCode": "USD"
    },
    {
        "airportCity": "Greensboro/High Point",
        "airportCode": "GSO",
        "airportName": "Piedmont Triad International",
        "countryCode": "US",
        "countryName": "United States",
        "latitude": 36.097801,
        "longitude": -79.937302,
        "recordType": "A",
        "cugCurrencyCode": "USD"
    },
    {
        "airportCity": "Greenville",
        "airportCode": "GSP",
        "airportName": "Greenville-Spartanburg International Airport",
        "countryCode": "US",
        "countryName": "United States",
        "latitude": 34.8959,
        "longitude": -82.217234,
        "recordType": "A",
        "cugCurrencyCode": "USD"
    },
    {
        "airportCity": "Grenchen",
        "airportCode": "ZHI",
        "airportName": "Grenchen Sud Railway Station",
        "countryCode": "CH",
        "countryName": "Switzerland",
        "latitude": 47.1887,
        "longitude": 7.3982,
        "recordType": "R",
        "cugCurrencyCode": "INR"
    },
    {
        "airportCity": "Guangzhou",
        "airportCode": "CAN",
        "airportName": "Guangzhou Baiyun International Airport",
        "countryCode": "CN",
        "countryName": "China",
        "latitude": 23.392401,
        "longitude": 113.299004,
        "recordType": "A",
        "cugCurrencyCode": "INR"
    },
    {
        "airportCity": "Guatemala City",
        "airportCode": "GUA",
        "airportName": "La Aurora International Airport",
        "countryCode": "GT",
        "countryName": "Guatemala",
        "latitude": 14.5833,
        "longitude": -90.527496,
        "recordType": "A",
        "cugCurrencyCode": "USD"
    },
    {
        "airportCity": "Guayaquil",
        "airportCode": "GYE",
        "airportName": "José Joaquín de Olmedo International Airport",
        "countryCode": "EC",
        "countryName": "Ecuador",
        "latitude": -2.15742,
        "longitude": -79.883598,
        "recordType": "A",
        "cugCurrencyCode": "USD"
    },
    {
        "airportCity": "Guilin",
        "airportCode": "KWL",
        "airportName": "Guilin Liangjiang International Airport",
        "countryCode": "CN",
        "countryName": "China",
        "latitude": 25.259653,
        "longitude": 110.208784,
        "recordType": "A",
        "cugCurrencyCode": "INR"
    },
    {
        "airportCity": "Guiyang",
        "airportCode": "KWE",
        "airportName": "Guiyang Longdongbao International Airport",
        "countryCode": "CN",
        "countryName": "China",
        "latitude": 26.540692,
        "longitude": 106.800209,
        "recordType": "A",
        "cugCurrencyCode": "INR"
    },
    {
        "airportCity": "Gulfport",
        "airportCode": "GPT",
        "airportName": "Gulfport-Biloxi International Airport",
        "countryCode": "US",
        "countryName": "United States",
        "latitude": 30.407301,
        "longitude": -89.070099,
        "recordType": "A",
        "cugCurrencyCode": "USD"
    },
    {
        "airportCity": "Gunnison",
        "airportCode": "GUC",
        "airportName": "Gunnison Crested Butte",
        "countryCode": "US",
        "countryName": "United States",
        "latitude": 38.533901,
        "longitude": -106.932999,
        "recordType": "A",
        "cugCurrencyCode": "USD"
    },
    {
        "airportCity": "Guwahati",
        "airportCode": "GAU",
        "airportName": "Lokpriya Gopinath Bordoloi International Airport",
        "countryCode": "IN",
        "countryName": "India",
        "latitude": 26.10572,
        "longitude": 91.58764,
        "recordType": "A",
        "cugCurrencyCode": "INR"
    },
    {
        "airportCity": "Gwalior",
        "airportCode": "GWL",
        "airportName": "Rajmata Vijaya Raje Scindia Air Terminal",
        "countryCode": "IN",
        "countryName": "India",
        "latitude": 26.2933,
        "longitude": 78.2278,
        "recordType": "A",
        "cugCurrencyCode": "INR"
    },
    {
        "airportCity": "Gwangju",
        "airportCode": "KWJ",
        "airportName": "Gwangju Airport",
        "countryCode": "KR",
        "countryName": "South Korea",
        "latitude": 35.140175,
        "longitude": 126.81021,
        "recordType": "A",
        "cugCurrencyCode": "KRW"
    },
    {
        "airportCity": "Gyor",
        "airportCode": "QGY",
        "airportName": "Gyor Railway Station",
        "countryCode": "HU",
        "countryName": "Hungary",
        "latitude": 47.6822,
        "longitude": 17.6344,
        "recordType": "R",
        "cugCurrencyCode": "INR"
    },
    {
        "airportCity": "Hainan Island",
        "airportCode": "SYX",
        "airportName": "Sanya Phoenix International Airport",
        "countryCode": "CN",
        "countryName": "China",
        "latitude": 18.303701,
        "longitude": 109.412663,
        "recordType": "A",
        "cugCurrencyCode": "INR"
    },
    {
        "airportCity": "Hai Phong",
        "airportCode": "HPH",
        "airportName": "Cat Bi International Airport",
        "countryCode": "VN",
        "countryName": "Vietnam",
        "latitude": 20.823018,
        "longitude": 106.727405,
        "recordType": "A",
        "cugCurrencyCode": "USD"
    },
    {
        "airportCity": "Halifax",
        "airportCode": "YHZ",
        "airportName": "Halifax International Airport",
        "countryCode": "CA",
        "countryName": "Canada",
        "latitude": 44.88594,
        "longitude": -63.5094,
        "recordType": "A",
        "cugCurrencyCode": "CAD"
    },
    {
        "airportCity": "Hamburg",
        "airportCode": "HAM",
        "airportName": "Hamburg Airport",
        "countryCode": "DE",
        "countryName": "Germany",
        "latitude": 53.6336,
        "longitude": 9.9974,
        "recordType": "A",
        "cugCurrencyCode": "EUR"
    },
    {
        "airportCity": "Hamburg",
        "airportCode": "ZMB",
        "airportName": "Hamburg Central",
        "countryCode": "DE",
        "countryName": "Germany",
        "latitude": 53.552767,
        "longitude": 10.00685,
        "recordType": "R",
        "cugCurrencyCode": "EUR"
    },
    {
        "airportCity": "Hamilton Island",
        "airportCode": "HTI",
        "airportName": "Great Barrier Reef Airport",
        "countryCode": "AU",
        "countryName": "Australia",
        "latitude": -20.358101,
        "longitude": 148.951996,
        "recordType": "A",
        "cugCurrencyCode": "AUD"
    },
    {
        "airportCity": "Hangzhou",
        "airportCode": "HGH",
        "airportName": "Hangzhou Xiaoshan International Airport",
        "countryCode": "CN",
        "countryName": "China",
        "latitude": 30.235949,
        "longitude": 120.438891,
        "recordType": "A",
        "cugCurrencyCode": "INR"
    },
    {
        "airportCity": "Hannover",
        "airportCode": "HAJ",
        "airportName": "Hannover Airport",
        "countryCode": "DE",
        "countryName": "Germany",
        "latitude": 52.4608,
        "longitude": 9.685,
        "recordType": "A",
        "cugCurrencyCode": "EUR"
    },
    {
        "airportCity": "Hanoi",
        "airportCode": "HAN",
        "airportName": "Nội Bài International Airport",
        "countryCode": "VN",
        "countryName": "Vietnam",
        "latitude": 21.221201,
        "longitude": 105.806999,
        "recordType": "A",
        "cugCurrencyCode": "USD"
    },
    {
        "airportCity": "Hanover",
        "airportCode": "ZVR",
        "airportName": "Hannover Central",
        "countryCode": "DE",
        "countryName": "Germany",
        "latitude": 52.31901,
        "longitude": 9.96042,
        "recordType": "R",
        "cugCurrencyCode": "EUR"
    },
    {
        "airportCity": "Harare",
        "airportCode": "HRE",
        "airportName": "Harare International Airport",
        "countryCode": "ZW",
        "countryName": "Zimbabwe",
        "latitude": -17.9187,
        "longitude": 31.09727,
        "recordType": "A",
        "cugCurrencyCode": "USD"
    },
    {
        "airportCity": "Harrisburg",
        "airportCode": "MDT",
        "airportName": "Harrisburg International",
        "countryCode": "US",
        "countryName": "United States",
        "latitude": 40.193501,
        "longitude": -76.763397,
        "recordType": "A",
        "cugCurrencyCode": "USD"
    },
    {
        "airportCity": "Hartford",
        "airportCode": "BDL",
        "airportName": "Bradley International Airport",
        "countryCode": "US",
        "countryName": "United States",
        "latitude": 41.9389,
        "longitude": -72.683197,
        "recordType": "A",
        "cugCurrencyCode": "USD"
    },
    {
        "airportCity": "Hat Yai",
        "airportCode": "HDY",
        "airportName": "Hat Yai International Airport",
        "countryCode": "TH",
        "countryName": "Thailand",
        "latitude": 6.93321,
        "longitude": 100.392998,
        "recordType": "A",
        "cugCurrencyCode": "THB"
    },
    {
        "airportCity": "Hayden",
        "airportCode": "HDN",
        "airportName": "Yampa Valley",
        "countryCode": "US",
        "countryName": "United States",
        "latitude": 40.481201,
        "longitude": -107.218002,
        "recordType": "A",
        "cugCurrencyCode": "USD"
    },
    {
        "airportCity": "Hereford",
        "airportCode": "HFH",
        "airportName": "Hereford Railway Station",
        "countryCode": "GB",
        "countryName": "United Kingdom",
        "latitude": 52.0612,
        "longitude": 2.7085,
        "recordType": "R",
        "cugCurrencyCode": "GBP"
    },
    {
        "airportCity": "Hervey Bay",
        "airportCode": "HVB",
        "airportName": "Hervey Bay Airport",
        "countryCode": "AU",
        "countryName": "Australia",
        "latitude": -25.320127,
        "longitude": 152.880662,
        "recordType": "A",
        "cugCurrencyCode": "AUD"
    },
    {
        "airportCity": "Hilo",
        "airportCode": "ITO",
        "airportName": "Hilo International",
        "countryCode": "US",
        "countryName": "United States",
        "latitude": 19.721399,
        "longitude": -155.048004,
        "recordType": "A",
        "cugCurrencyCode": "USD"
    },
    {
        "airportCity": "Hirasar Rajkot",
        "airportCode": "HSR",
        "airportName": "Rajkot International Airport",
        "countryCode": "IN",
        "countryName": "India",
        "latitude": 22.3805,
        "longitude": 71.0332,
        "recordType": "A",
        "cugCurrencyCode": "INR"
    },
    {
        "airportCity": "Hobart",
        "airportCode": "HBA",
        "airportName": "Hobart International Airport",
        "countryCode": "AU",
        "countryName": "Australia",
        "latitude": -42.836102,
        "longitude": 147.509995,
        "recordType": "A",
        "cugCurrencyCode": "AUD"
    },
    {
        "airportCity": "Ho Chi Minh City",
        "airportCode": "SGN",
        "airportName": "Tân Sơn Nhất International Airport",
        "countryCode": "VN",
        "countryName": "Vietnam",
        "latitude": 10.8188,
        "longitude": 106.652,
        "recordType": "A",
        "cugCurrencyCode": "USD"
    },
    {
        "airportCity": "Hohhot",
        "airportCode": "HET",
        "airportName": "Hohhot Baita International Airport",
        "countryCode": "CN",
        "countryName": "China",
        "latitude": 40.854713,
        "longitude": 111.814156,
        "recordType": "A",
        "cugCurrencyCode": "INR"
    },
    {
        "airportCity": "Hong Kong",
        "airportCode": "HKG",
        "airportName": "Hong Kong International Airport",
        "countryCode": "HK",
        "countryName": "Hong Kong SAR China",
        "latitude": 22.30713,
        "longitude": 113.91913,
        "recordType": "A",
        "cugCurrencyCode": "HKD"
    },
    {
        "airportCity": "Honolulu",
        "airportCode": "HNL",
        "airportName": "Daniel K. Inouye International",
        "countryCode": "US",
        "countryName": "United States",
        "latitude": 21.32062,
        "longitude": -157.924228,
        "recordType": "A",
        "cugCurrencyCode": "USD"
    },
    {
        "airportCity": "Houston",
        "airportCode": "IAH",
        "airportName": "George Bush Intercont",
        "countryCode": "US",
        "countryName": "United States",
        "latitude": 29.9844,
        "longitude": -95.3414,
        "recordType": "A",
        "cugCurrencyCode": "USD"
    },
    {
        "airportCity": "Hubli",
        "airportCode": "HBX",
        "airportName": "Hubballi Airport",
        "countryCode": "IN",
        "countryName": "India",
        "latitude": 15.36001,
        "longitude": 75.08619,
        "recordType": "A",
        "cugCurrencyCode": "INR"
    },
    {
        "airportCity": "Hue",
        "airportCode": "HUI",
        "airportName": "Phu Bai International Airport",
        "countryCode": "VN",
        "countryName": "Vietnam",
        "latitude": 16.397528,
        "longitude": 107.700573,
        "recordType": "A",
        "cugCurrencyCode": "USD"
    },
    {
        "airportCity": "Huntsville",
        "airportCode": "HSV",
        "airportName": "International Carl T. Jones Field",
        "countryCode": "US",
        "countryName": "United States",
        "latitude": 34.637199,
        "longitude": -86.775101,
        "recordType": "A",
        "cugCurrencyCode": "USD"
    },
    {
        "airportCity": "Hurghada",
        "airportCode": "HRG",
        "airportName": "Hurghada International Airport",
        "countryCode": "EG",
        "countryName": "Egypt",
        "latitude": 27.1805,
        "longitude": 33.8076,
        "recordType": "A",
        "cugCurrencyCode": "INR"
    },
    {
        "airportCity": "Hyderabad",
        "airportCode": "HYD",
        "airportName": "Rajiv Gandhi International Airport",
        "countryCode": "IN",
        "countryName": "India",
        "latitude": 17.23666,
        "longitude": 78.42989,
        "recordType": "A",
        "cugCurrencyCode": "INR"
    },
    {
        "airportCity": "Ibiza",
        "airportCode": "IBZ",
        "airportName": "Ibiza Airport",
        "countryCode": "ES",
        "countryName": "Spain",
        "latitude": 38.8749,
        "longitude": 1.371223,
        "recordType": "A",
        "cugCurrencyCode": "EUR"
    },
    {
        "airportCity": "Idaho Falls",
        "airportCode": "IDA",
        "airportName": "Idaho Falls Regional",
        "countryCode": "US",
        "countryName": "United States",
        "latitude": 43.514599,
        "longitude": -112.070999,
        "recordType": "A",
        "cugCurrencyCode": "USD"
    },
    {
        "airportCity": "Imperial El Centro",
        "airportCode": "IPL",
        "airportName": "Imperial County",
        "countryCode": "US",
        "countryName": "United States",
        "latitude": 32.834202,
        "longitude": -115.579002,
        "recordType": "A",
        "cugCurrencyCode": "USD"
    },
    {
        "airportCity": "Imphal",
        "airportCode": "IMF",
        "airportName": "Bir Tikendrajit International Airport",
        "countryCode": "IN",
        "countryName": "India",
        "latitude": 24.76417,
        "longitude": 93.89944,
        "recordType": "A",
        "cugCurrencyCode": "INR"
    },