[
  {
    "AirportName": "Goroka Airport",
    "City": "Goroka",
    "Country": "Papua New Guinea",
    "IATA": "GKA",
    "ICAO": "AYGA",
    "Lat": -6.081689835,
    "Long": 145.3919983,
    "TimeZone": "Pacific/Port_Moresby"
  },
  {
    "AirportName": "Madang Airport",
    "City": "Madang",
    "Country": "Papua New Guinea",
    "IATA": "MAG",
    "ICAO": "AYMD",
    "Lat": -5.207079887,
    "Long": 145.7890015,
    "TimeZone": "Pacific/Port_Moresby"
  },
  {
    "AirportName": "Mount Hagen Kagamuga Airport",
    "City": "Mount Hagen",
    "Country": "Papua New Guinea",
    "IATA": "HGU",
    "ICAO": "AYMH",
    "Lat": -5.826789856,
    "Long": 144.29600524902344,
    "TimeZone": "Pacific/Port_Moresby"
  },
  {
    "AirportName": "Nadzab Airport",
    "City": "Nadzab",
    "Country": "Papua New Guinea",
    "IATA": "LAE",
    "ICAO": "AYNZ",
    "Lat": -6.569803,
    "Long": 146.725977,
    "TimeZone": "Pacific/Port_Moresby"
  },
  {
    "AirportName": "Port Moresby Jacksons International Airport",
    "City": "Port Moresby",
    "Country": "Papua New Guinea",
    "IATA": "POM",
    "ICAO": "AYPY",
    "Lat": -9.443380356,
    "Long": 147.22000122070312,
    "TimeZone": "Pacific/Port_Moresby"
  },
  {
    "AirportName": "Wewak International Airport",
    "City": "Wewak",
    "Country": "Papua New Guinea",
    "IATA": "WWK",
    "ICAO": "AYWK",
    "Lat": -3.583830118,
    "Long": 143.6690063,
    "TimeZone": "Pacific/Port_Moresby"
  },
  {
    "AirportName": "Narsarsuaq Airport",
    "City": "Narssarssuaq",
    "Country": "Greenland",
    "IATA": "UAK",
    "ICAO": "BGBW",
    "Lat": 61.16049957,
    "Long": -45.42599869,
    "TimeZone": "America/Godthab"
  },
  {
    "AirportName": "Godthaab / Nuuk Airport",
    "City": "Godthaab",
    "Country": "Greenland",
    "IATA": "GOH",
    "ICAO": "BGGH",
    "Lat": 64.19090271,
    "Long": -51.67810059,
    "TimeZone": "America/Godthab"
  },
  {
    "AirportName": "Kangerlussuaq Airport",
    "City": "Sondrestrom",
    "Country": "Greenland",
    "IATA": "SFJ",
    "ICAO": "BGSF",
    "Lat": 67.0122219,
    "Long": -50.71160316,
    "TimeZone": "America/Godthab"
  },
  {
    "AirportName": "Thule Air Base",
    "City": "Thule",
    "Country": "Greenland",
    "IATA": "THU",
    "ICAO": "BGTL",
    "Lat": 76.53119659,
    "Long": -68.70320129,
    "TimeZone": "America/Thule"
  },
  {
    "AirportName": "Akureyri Airport",
    "City": "Akureyri",
    "Country": "Iceland",
    "IATA": "AEY",
    "ICAO": "BIAR",
    "Lat": 65.66000366210938,
    "Long": -18.0727005,
    "TimeZone": "Atlantic/Reykjavik"
  },
  {
    "AirportName": "Egilsstaðir Airport",
    "City": "Egilsstadir",
    "Country": "Iceland",
    "IATA": "EGS",
    "ICAO": "BIEG",
    "Lat": 65.28330231,
    "Long": -14.40139961,
    "TimeZone": "Atlantic/Reykjavik"
  },
  {
    "AirportName": "Hornafjörður Airport",
    "City": "Hofn",
    "Country": "Iceland",
    "IATA": "HFN",
    "ICAO": "BIHN",
    "Lat": 64.295601,
    "Long": -15.2272,
    "TimeZone": "Atlantic/Reykjavik"
  },
  {
    "AirportName": "Húsavík Airport",
    "City": "Husavik",
    "Country": "Iceland",
    "IATA": "HZK",
    "ICAO": "BIHU",
    "Lat": 65.952301,
    "Long": -17.426001,
    "TimeZone": "Atlantic/Reykjavik"
  },
  {
    "AirportName": "Ísafjörður Airport",
    "City": "Isafjordur",
    "Country": "Iceland",
    "IATA": "IFJ",
    "ICAO": "BIIS",
    "Lat": 66.05809783935547,
    "Long": -23.13529968,
    "TimeZone": "Atlantic/Reykjavik"
  },
  {
    "AirportName": "Keflavik International Airport",
    "City": "Keflavik",
    "Country": "Iceland",
    "IATA": "KEF",
    "ICAO": "BIKF",
    "Lat": 63.98500061,
    "Long": -22.60560036,
    "TimeZone": "Atlantic/Reykjavik"
  },
  {
    "AirportName": "Patreksfjörður Airport",
    "City": "Patreksfjordur",
    "Country": "Iceland",
    "IATA": "PFJ",
    "ICAO": "BIPA",
    "Lat": 65.555801,
    "Long": -23.965,
    "TimeZone": "Atlantic/Reykjavik"
  },
  {
    "AirportName": "Reykjavik Airport",
    "City": "Reykjavik",
    "Country": "Iceland",
    "IATA": "RKV",
    "ICAO": "BIRK",
    "Lat": 64.12999725,
    "Long": -21.94059944,
    "TimeZone": "Atlantic/Reykjavik"
  },
  {
    "AirportName": "Siglufjörður Airport",
    "City": "Siglufjordur",
    "Country": "Iceland",
    "IATA": "SIJ",
    "ICAO": "BISI",
    "Lat": 66.133301,
    "Long": -18.9167,
    "TimeZone": "Atlantic/Reykjavik"
  },
  {
    "AirportName": "Vestmannaeyjar Airport",
    "City": "Vestmannaeyjar",
    "Country": "Iceland",
    "IATA": "VEY",
    "ICAO": "BIVM",
    "Lat": 63.42430114746094,
    "Long": -20.27890015,
    "TimeZone": "Atlantic/Reykjavik"
  },
  {
    "AirportName": "Sault Ste Marie Airport",
    "City": "Sault Sainte Marie",
    "Country": "Canada",
    "IATA": "YAM",
    "ICAO": "CYAM",
    "Lat": 46.48500061035156,
    "Long": -84.50939941,
    "TimeZone": "America/Toronto"
  },
  {
    "AirportName": "St. Anthony Airport",
    "City": "St. Anthony",
    "Country": "Canada",
    "IATA": "YAY",
    "ICAO": "CYAY",
    "Lat": 51.39189911,
    "Long": -56.08309937,
    "TimeZone": "America/St_Johns"
  },
  {
    "AirportName": "Tofino / Long Beach Airport",
    "City": "Tofino",
    "Country": "Canada",
    "IATA": "YAZ",
    "ICAO": "CYAZ",
    "Lat": 49.079833,
    "Long": -125.775583,
    "TimeZone": "America/Vancouver"
  },
  {
    "AirportName": "Kugaaruk Airport",
    "City": "Pelly Bay",
    "Country": "Canada",
    "IATA": "YBB",
    "ICAO": "CYBB",
    "Lat": 68.534401,
    "Long": -89.808098,
    "TimeZone": "America/Edmonton"
  },
  {
    "AirportName": "Baie Comeau Airport",
    "City": "Baie Comeau",
    "Country": "Canada",
    "IATA": "YBC",
    "ICAO": "CYBC",
    "Lat": 49.13249969482422,
    "Long": -68.20439911,
    "TimeZone": "America/Toronto"
  },
  {
    "AirportName": "CFB Bagotville",
    "City": "Bagotville",
    "Country": "Canada",
    "IATA": "YBG",
    "ICAO": "CYBG",
    "Lat": 48.33060073852539,
    "Long": -70.99639893,
    "TimeZone": "America/Toronto"
  },
  {
    "AirportName": "Baker Lake Airport",
    "City": "Baker Lake",
    "Country": "Canada",
    "IATA": "YBK",
    "ICAO": "CYBK",
    "Lat": 64.29889678960001,
    "Long": -96.07779694,
    "TimeZone": "America/Winnipeg"
  },
  {
    "AirportName": "Campbell River Airport",
    "City": "Campbell River",
    "Country": "Canada",
    "IATA": "YBL",
    "ICAO": "CYBL",
    "Lat": 49.950801849365234,
    "Long": -125.2710037,
    "TimeZone": "America/Vancouver"
  },
  {
    "AirportName": "Brandon Municipal Airport",
    "City": "Brandon",
    "Country": "Canada",
    "IATA": "YBR",
    "ICAO": "CYBR",
    "Lat": 49.91,
    "Long": -99.951897,
    "TimeZone": "America/Winnipeg"
  },
  {
    "AirportName": "Cambridge Bay Airport",
    "City": "Cambridge Bay",
    "Country": "Canada",
    "IATA": "YCB",
    "ICAO": "CYCB",
    "Lat": 69.10810089,
    "Long": -105.1380005,
    "TimeZone": "America/Edmonton"
  },
  {
    "AirportName": "Nanaimo Airport",
    "City": "Nanaimo",
    "Country": "Canada",
    "IATA": "YCD",
    "ICAO": "CYCD",
    "Lat": 49.054970224899996,
    "Long": -123.8698626,
    "TimeZone": "America/Vancouver"
  },
  {
    "AirportName": "Castlegar/West Kootenay Regional Airport",
    "City": "Castlegar",
    "Country": "Canada",
    "IATA": "YCG",
    "ICAO": "CYCG",
    "Lat": 49.29639816,
    "Long": -117.6320038,
    "TimeZone": "America/Vancouver"
  },
  {
    "AirportName": "Miramichi Airport",
    "City": "Chatham",
    "Country": "Canada",
    "IATA": "YCH",
    "ICAO": "CYCH",
    "Lat": 47.007801,
    "Long": -65.449203,
    "TimeZone": "America/Halifax"
  },
  {
    "AirportName": "Charlo Airport",
    "City": "Charlo",
    "Country": "Canada",
    "IATA": "YCL",
    "ICAO": "CYCL",
    "Lat": 47.990799,
    "Long": -66.330299,
    "TimeZone": "America/Halifax"
  },
  {
    "AirportName": "Kugluktuk Airport",
    "City": "Coppermine",
    "Country": "Canada",
    "IATA": "YCO",
    "ICAO": "CYCO",
    "Lat": 67.816704,
    "Long": -115.143997,
    "TimeZone": "America/Edmonton"
  },
  {
    "AirportName": "Coronation Airport",
    "City": "Coronation",
    "Country": "Canada",
    "IATA": "YCT",
    "ICAO": "CYCT",
    "Lat": 52.07500076,
    "Long": -111.4449997,
    "TimeZone": "America/Edmonton"
  },
  {
    "AirportName": "Chilliwack Airport",
    "City": "Chilliwack",
    "Country": "Canada",
    "IATA": "YCW",
    "ICAO": "CYCW",
    "Lat": 49.15280151,
    "Long": -121.939003,
    "TimeZone": "America/Vancouver"
  },
  {
    "AirportName": "Clyde River Airport",
    "City": "Clyde River",
    "Country": "Canada",
    "IATA": "YCY",
    "ICAO": "CYCY",
    "Lat": 70.48609924,
    "Long": -68.51670074,
    "TimeZone": "America/Toronto"
  },
  {
    "AirportName": "Coral Harbour Airport",
    "City": "Coral Harbour",
    "Country": "Canada",
    "IATA": "YZS",
    "ICAO": "CYZS",
    "Lat": 64.19329834,
    "Long": -83.35939789,
    "TimeZone": "America/Coral_Harbour"
  },
  {
    "AirportName": "Dawson City Airport",
    "City": "Dawson",
    "Country": "Canada",
    "IATA": "YDA",
    "ICAO": "CYDA",
    "Lat": 64.04309844970703,
    "Long": -139.128006,
    "TimeZone": "America/Vancouver"
  },
  {
    "AirportName": "Burwash Airport",
    "City": "Burwash",
    "Country": "Canada",
    "IATA": "YDB",
    "ICAO": "CYDB",
    "Lat": 61.37110137939453,
    "Long": -139.0410004,
    "TimeZone": "America/Vancouver"
  },
  {
    "AirportName": "Deer Lake Airport",
    "City": "Deer Lake",
    "Country": "Canada",
    "IATA": "YDF",
    "ICAO": "CYDF",
    "Lat": 49.21080017089844,
    "Long": -57.39139938,
    "TimeZone": "America/St_Johns"
  },
  {
    "AirportName": "Dease Lake Airport",
    "City": "Dease Lake",
    "Country": "Canada",
    "IATA": "YDL",
    "ICAO": "CYDL",
    "Lat": 58.42219925,
    "Long": -130.0319977,
    "TimeZone": "America/Vancouver"
  },
  {
    "AirportName": "Dauphin Barker Airport",
    "City": "Dauphin",
    "Country": "Canada",
    "IATA": "YDN",
    "ICAO": "CYDN",
    "Lat": 51.100799560546875,
    "Long": -100.052002,
    "TimeZone": "America/Winnipeg"
  },
  {
    "AirportName": "Dawson Creek Airport",
    "City": "Dawson Creek",
    "Country": "Canada",
    "IATA": "YDQ",
    "ICAO": "CYDQ",
    "Lat": 55.74229813,
    "Long": -120.1829987,
    "TimeZone": "America/Dawson_Creek"
  },
  {
    "AirportName": "Edmonton International Airport",
    "City": "Edmonton",
    "Country": "Canada",
    "IATA": "YEG",
    "ICAO": "CYEG",
    "Lat": 53.309700012200004,
    "Long": -113.5800018,
    "TimeZone": "America/Edmonton"
  },
  {
    "AirportName": "Arviat Airport",
    "City": "Eskimo Point",
    "Country": "Canada",
    "IATA": "YEK",
    "ICAO": "CYEK",
    "Lat": 61.09420013,
    "Long": -94.07080078,
    "TimeZone": "America/Winnipeg"
  },
  {
    "AirportName": "Estevan Airport",
    "City": "Estevan",
    "Country": "Canada",
    "IATA": "YEN",
    "ICAO": "CYEN",
    "Lat": 49.21030045,
    "Long": -102.9660034,
    "TimeZone": "America/Regina"
  },
  {
    "AirportName": "Edson Airport",
    "City": "Edson",
    "Country": "Canada",
    "IATA": "YET",
    "ICAO": "CYET",
    "Lat": 53.578899383499994,
    "Long": -116.4649963,
    "TimeZone": "America/Edmonton"
  },
  {
    "AirportName": "Eureka Airport",
    "City": "Eureka",
    "Country": "Canada",
    "IATA": "YEU",
    "ICAO": "CYEU",
    "Lat": 79.99469757,
    "Long": -85.81420136,
    "TimeZone": "America/Winnipeg"
  },
  {
    "AirportName": "Inuvik Mike Zubko Airport",
    "City": "Inuvik",
    "Country": "Canada",
    "IATA": "YEV",
    "ICAO": "CYEV",
    "Lat": 68.30419921880001,
    "Long": -133.4830017,
    "TimeZone": "America/Edmonton"
  },
  {
    "AirportName": "Iqaluit Airport",
    "City": "Iqaluit",
    "Country": "Canada",
    "IATA": "YFB",
    "ICAO": "CYFB",
    "Lat": 63.756402,
    "Long": -68.555801,
    "TimeZone": "America/Toronto"
  },
  {
    "AirportName": "Fredericton Airport",
    "City": "Fredericton",
    "Country": "Canada",
    "IATA": "YFC",
    "ICAO": "CYFC",
    "Lat": 45.868900299072266,
    "Long": -66.53720093,
    "TimeZone": "America/Halifax"
  },
  {
    "AirportName": "Forestville Airport",
    "City": "Forestville",
    "Country": "Canada",
    "IATA": "YFE",
    "ICAO": "CYFE",
    "Lat": 48.74610137939453,
    "Long": -69.09719849,
    "TimeZone": "America/Toronto"
  },
  {
    "AirportName": "Flin Flon Airport",
    "City": "Flin Flon",
    "Country": "Canada",
    "IATA": "YFO",
    "ICAO": "CYFO",
    "Lat": 54.67810059,
    "Long": -101.6819992,
    "TimeZone": "America/Winnipeg"
  },
  {
    "AirportName": "Fort Resolution Airport",
    "City": "Fort Resolution",
    "Country": "Canada",
    "IATA": "YFR",
    "ICAO": "CYFR",
    "Lat": 61.18080139,
    "Long": -113.6900024,
    "TimeZone": "America/Edmonton"
  },
  {
    "AirportName": "Fort Simpson Airport",
    "City": "Fort Simpson",
    "Country": "Canada",
    "IATA": "YFS",
    "ICAO": "CYFS",
    "Lat": 61.76020050048828,
    "Long": -121.2369995,
    "TimeZone": "America/Edmonton"
  },
  {
    "AirportName": "Kingston Norman Rogers Airport",
    "City": "Kingston",
    "Country": "Canada",
    "IATA": "YGK",
    "ICAO": "CYGK",
    "Lat": 44.22529983520508,
    "Long": -76.59690094,
    "TimeZone": "America/Toronto"
  },
  {
    "AirportName": "La Grande Rivière Airport",
    "City": "La Grande Riviere",
    "Country": "Canada",
    "IATA": "YGL",
    "ICAO": "CYGL",
    "Lat": 53.625301361083984,
    "Long": -77.70420074,
    "TimeZone": "America/Toronto"
  },
  {
    "AirportName": "Gaspé (Michel-Pouliot) Airport",
    "City": "Gaspe",
    "Country": "Canada",
    "IATA": "YGP",
    "ICAO": "CYGP",
    "Lat": 48.77529907,
    "Long": -64.47859955,
    "TimeZone": "America/Toronto"
  },
  {
    "AirportName": "Geraldton Greenstone Regional Airport",
    "City": "Geraldton",
    "Country": "Canada",
    "IATA": "YGQ",
    "ICAO": "CYGQ",
    "Lat": 49.77830123901367,
    "Long": -86.93939972,
    "TimeZone": "America/Toronto"
  },
  {
    "AirportName": "Îles-de-la-Madeleine Airport",
    "City": "Iles De La Madeleine",
    "Country": "Canada",
    "IATA": "YGR",
    "ICAO": "CYGR",
    "Lat": 47.42470169067383,
    "Long": -61.77809906,
    "TimeZone": "America/Toronto"
  },
  {
    "AirportName": "Hudson Bay Airport",
    "City": "Hudson Bay",
    "Country": "Canada",
    "IATA": "YHB",
    "ICAO": "CYHB",
    "Lat": 52.81669998,
    "Long": -102.310997,
    "TimeZone": "America/Regina"
  },
  {
    "AirportName": "Dryden Regional Airport",
    "City": "Dryden",
    "Country": "Canada",
    "IATA": "YHD",
    "ICAO": "CYHD",
    "Lat": 49.831699,
    "Long": -92.744202,
    "TimeZone": "America/Winnipeg"
  },
  {
    "AirportName": "Ulukhaktok Holman Airport",
    "City": "Holman Island",
    "Country": "Canada",
    "IATA": "YHI",
    "ICAO": "CYHI",
    "Lat": 70.76280212402344,
    "Long": -117.8059998,
    "TimeZone": "America/Edmonton"
  },
  {
    "AirportName": "Gjoa Haven Airport",
    "City": "Gjoa Haven",
    "Country": "Canada",
    "IATA": "YHK",
    "ICAO": "CYHK",
    "Lat": 68.63559723,
    "Long": -95.84970093,
    "TimeZone": "America/Edmonton"
  },
  {
    "AirportName": "John C. Munro Hamilton International Airport",
    "City": "Hamilton",
    "Country": "Canada",
    "IATA": "YHM",
    "ICAO": "CYHM",
    "Lat": 43.173599243199995,
    "Long": -79.93499756,
    "TimeZone": "America/Toronto"
  },
  {
    "AirportName": "Montréal / Saint-Hubert Airport",
    "City": "Montreal",
    "Country": "Canada",
    "IATA": "YHU",
    "ICAO": "CYHU",
    "Lat": 45.51750183,
    "Long": -73.41690063,
    "TimeZone": "America/Toronto"
  },
  {
    "AirportName": "Hay River / Merlyn Carter Airport",
    "City": "Hay River",
    "Country": "Canada",
    "IATA": "YHY",
    "ICAO": "CYHY",
    "Lat": 60.83969879,
    "Long": -115.7829971,
    "TimeZone": "America/Edmonton"
  },
  {
    "AirportName": "Halifax / Stanfield International Airport",
    "City": "Halifax",
    "Country": "Canada",
    "IATA": "YHZ",
    "ICAO": "CYHZ",
    "Lat": 44.88079834,
    "Long": -63.50859833,
    "TimeZone": "America/Halifax"
  },
  {
    "AirportName": "Atikokan Municipal Airport",
    "City": "Atikokan",
    "Country": "Canada",
    "IATA": "YIB",
    "ICAO": "CYIB",
    "Lat": 48.77389908,
    "Long": -91.63860321,
    "TimeZone": "America/Coral_Harbour"
  },
  {
    "AirportName": "Pond Inlet Airport",
    "City": "Pond Inlet",
    "Country": "Canada",
    "IATA": "YIO",
    "ICAO": "CYIO",
    "Lat": 72.6832962,
    "Long": -77.96669769,
    "TimeZone": "America/Toronto"
  },
  {
    "AirportName": "St Jean Airport",
    "City": "St. Jean",
    "Country": "Canada",
    "IATA": "YJN",
    "ICAO": "CYJN",
    "Lat": 45.29439926147461,
    "Long": -73.28109741,
    "TimeZone": "America/Toronto"
  },
  {
    "AirportName": "Stephenville Airport",
    "City": "Stephenville",
    "Country": "Canada",
    "IATA": "YJT",
    "ICAO": "CYJT",
    "Lat": 48.5442009,
    "Long": -58.54999924,
    "TimeZone": "America/St_Johns"
  },
  {
    "AirportName": "Kamloops Airport",
    "City": "Kamloops",
    "Country": "Canada",
    "IATA": "YKA",
    "ICAO": "CYKA",
    "Lat": 50.70220184,
    "Long": -120.4440002,
    "TimeZone": "America/Vancouver"
  },
  {
    "AirportName": "Waterloo Airport",
    "City": "Waterloo",
    "Country": "Canada",
    "IATA": "YKF",
    "ICAO": "CYKF",
    "Lat": 43.460800170899994,
    "Long": -80.37860107,
    "TimeZone": "America/Toronto"
  },
  {
    "AirportName": "Schefferville Airport",
    "City": "Schefferville",
    "Country": "Canada",
    "IATA": "YKL",
    "ICAO": "CYKL",
    "Lat": 54.805301666259766,
    "Long": -66.80529785,
    "TimeZone": "America/Toronto"
  },
  {
    "AirportName": "Kindersley Airport",
    "City": "Kindersley",
    "Country": "Canada",
    "IATA": "YKY",
    "ICAO": "CYKY",
    "Lat": 51.51750183,
    "Long": -109.1809998,
    "TimeZone": "America/Regina"
  },
  {
    "AirportName": "Buttonville Municipal Airport",
    "City": "Toronto",
    "Country": "Canada",
    "IATA": "YKZ",
    "ICAO": "CYKZ",
    "Lat": 43.86220169067383,
    "Long": -79.37000275,
    "TimeZone": "America/Toronto"
  },
  {
    "AirportName": "Chapleau Airport",
    "City": "Chapleau",
    "Country": "Canada",
    "IATA": "YLD",
    "ICAO": "CYLD",
    "Lat": 47.81999969482422,
    "Long": -83.34670258,
    "TimeZone": "America/Toronto"
  },
  {
    "AirportName": "Meadow Lake Airport",
    "City": "Meadow Lake",
    "Country": "Canada",
    "IATA": "YLJ",
    "ICAO": "CYLJ",
    "Lat": 54.125301361083984,
    "Long": -108.5230026,
    "TimeZone": "America/Regina"
  },
  {
    "AirportName": "Lloydminster Airport",
    "City": "Lloydminster",
    "Country": "Canada",
    "IATA": "YLL",
    "ICAO": "CYLL",
    "Lat": 53.309200286865234,
    "Long": -110.072998,
    "TimeZone": "America/Edmonton"
  },
  {
    "AirportName": "Alert Airport",
    "City": "Alert",
    "Country": "Canada",
    "IATA": "YLT",
    "ICAO": "CYLT",
    "Lat": 82.51779937740001,
    "Long": -62.2806015,
    "TimeZone": "America/Toronto"
  },
  {
    "AirportName": "Kelowna International Airport",
    "City": "Kelowna",
    "Country": "Canada",
    "IATA": "YLW",
    "ICAO": "CYLW",
    "Lat": 49.95610046,
    "Long": -119.3779984,
    "TimeZone": "America/Vancouver"
  },
  {
    "AirportName": "Mayo Airport",
    "City": "Mayo",
    "Country": "Canada",
    "IATA": "YMA",
    "ICAO": "CYMA",
    "Lat": 63.61640167236328,
    "Long": -135.8679962,
    "TimeZone": "America/Vancouver"
  },
  {
    "AirportName": "Moose Jaw Air Vice Marshal C. M. McEwen Airport",
    "City": "Moose Jaw",
    "Country": "Canada",
    "IATA": "YMJ",
    "ICAO": "CYMJ",
    "Lat": 50.330299377441406,
    "Long": -105.5589981,
    "TimeZone": "America/Regina"
  },
  {
    "AirportName": "Fort McMurray Airport",
    "City": "Fort Mcmurray",
    "Country": "Canada",
    "IATA": "YMM",
    "ICAO": "CYMM",
    "Lat": 56.65330124,
    "Long": -111.2220001,
    "TimeZone": "America/Edmonton"
  },
  {
    "AirportName": "Moosonee Airport",
    "City": "Moosonee",
    "Country": "Canada",
    "IATA": "YMO",
    "ICAO": "CYMO",
    "Lat": 51.291099548339844,
    "Long": -80.60780334,
    "TimeZone": "America/Toronto"
  },
  {
    "AirportName": "Maniwaki Airport",
    "City": "Maniwaki",
    "Country": "Canada",
    "IATA": "YMW",
    "ICAO": "CYMW",
    "Lat": 46.27280045,
    "Long": -75.99060059,
    "TimeZone": "America/Toronto"
  },
  {
    "AirportName": "Montreal International (Mirabel) Airport",
    "City": "Montreal",
    "Country": "Canada",
    "IATA": "YMX",
    "ICAO": "CYMX",
    "Lat": 45.679501,
    "Long": -74.038696,
    "TimeZone": "America/Toronto"
  },
  {
    "AirportName": "Natashquan Airport",
    "City": "Natashquan",
    "Country": "Canada",
    "IATA": "YNA",
    "ICAO": "CYNA",
    "Lat": 50.189998626708984,
    "Long": -61.78919983,
    "TimeZone": "America/Toronto"
  },
  {
    "AirportName": "Ottawa / Gatineau Airport",
    "City": "Gatineau",
    "Country": "Canada",
    "IATA": "YND",
    "ICAO": "CYND",
    "Lat": 45.521701812699995,
    "Long": -75.56359863,
    "TimeZone": "America/Toronto"
  },
  {
    "AirportName": "Matagami Airport",
    "City": "Matagami",
    "Country": "Canada",
    "IATA": "YNM",
    "ICAO": "CYNM",
    "Lat": 49.76169967651367,
    "Long": -77.80280304,
    "TimeZone": "America/Toronto"
  },
  {
    "AirportName": "Old Crow Airport",
    "City": "Old Crow",
    "Country": "Canada",
    "IATA": "YOC",
    "ICAO": "CYOC",
    "Lat": 67.57060241699219,
    "Long": -139.8390045,
    "TimeZone": "America/Vancouver"
  },
  {
    "AirportName": "CFB Cold Lake",
    "City": "Cold Lake",
    "Country": "Canada",
    "IATA": "YOD",
    "ICAO": "CYOD",
    "Lat": 54.404998779296875,
    "Long": -110.2789993,
    "TimeZone": "America/Edmonton"
  },
  {
    "AirportName": "High Level Airport",
    "City": "High Level",
    "Country": "Canada",
    "IATA": "YOJ",
    "ICAO": "CYOJ",
    "Lat": 58.62139892578125,
    "Long": -117.1650009,
    "TimeZone": "America/Edmonton"
  },
  {
    "AirportName": "Ottawa Macdonald-Cartier International Airport",
    "City": "Ottawa",
    "Country": "Canada",
    "IATA": "YOW",
    "ICAO": "CYOW",
    "Lat": 45.32249832,
    "Long": -75.66919708,
    "TimeZone": "America/Toronto"
  },
  {
    "AirportName": "Prince Albert Glass Field",
    "City": "Prince Albert",
    "Country": "Canada",
    "IATA": "YPA",
    "ICAO": "CYPA",
    "Lat": 53.214199066199996,
    "Long": -105.6729965,
    "TimeZone": "America/Regina"
  },
  {
    "AirportName": "Peace River Airport",
    "City": "Peace River",
    "Country": "Canada",
    "IATA": "YPE",
    "ICAO": "CYPE",
    "Lat": 56.226898,
    "Long": -117.446999,
    "TimeZone": "America/Edmonton"
  },
  {
    "AirportName": "Southport Airport",
    "City": "Portage-la-prairie",
    "Country": "Canada",
    "IATA": "YPG",
    "ICAO": "CYPG",
    "Lat": 49.903099,
    "Long": -98.273817,
    "TimeZone": "America/Winnipeg"
  },
  {
    "AirportName": "Pickle Lake Airport",
    "City": "Pickle Lake",
    "Country": "Canada",
    "IATA": "YPL",
    "ICAO": "CYPL",
    "Lat": 51.44639969,
    "Long": -90.21420288,
    "TimeZone": "America/Coral_Harbour"
  },
  {
    "AirportName": "Port Menier Airport",
    "City": "Port Menier",
    "Country": "Canada",
    "IATA": "YPN",
    "ICAO": "CYPN",
    "Lat": 49.83639907836914,
    "Long": -64.28859711,
    "TimeZone": "America/Toronto"
  },
  {
    "AirportName": "Peterborough Airport",
    "City": "Peterborough",
    "Country": "Canada",
    "IATA": "YPQ",
    "ICAO": "CYPQ",
    "Lat": 44.22999954223633,
    "Long": -78.36329651,
    "TimeZone": "America/Toronto"
  },
  {
    "AirportName": "Prince Rupert Airport",
    "City": "Prince Pupert",
    "Country": "Canada",
    "IATA": "YPR",
    "ICAO": "CYPR",
    "Lat": 54.286098480199996,
    "Long": -130.4450073,
    "TimeZone": "America/Vancouver"
  },
  {
    "AirportName": "Fort Chipewyan Airport",
    "City": "Fort Chipewyan",
    "Country": "Canada",
    "IATA": "YPY",
    "ICAO": "CYPY",
    "Lat": 58.76720047,
    "Long": -111.1169968,
    "TimeZone": "America/Edmonton"
  },
  {
    "AirportName": "Muskoka Airport",
    "City": "Muskoka",
    "Country": "Canada",
    "IATA": "YQA",
    "ICAO": "CYQA",
    "Lat": 44.974700927734375,
    "Long": -79.30329895,
    "TimeZone": "America/Toronto"
  },
  {
    "AirportName": "Quebec Jean Lesage International Airport",
    "City": "Quebec",
    "Country": "Canada",
    "IATA": "YQB",
    "ICAO": "CYQB",
    "Lat": 46.7911,
    "Long": -71.393303,
    "TimeZone": "America/Toronto"
  },
  {
    "AirportName": "Red Deer Regional Airport",
    "City": "Red Deer Industrial",
    "Country": "Canada",
    "IATA": "YQF",
    "ICAO": "CYQF",
    "Lat": 52.18220138549805,
    "Long": -113.8939972,
    "TimeZone": "America/Edmonton"
  },
  {
    "AirportName": "Windsor Airport",
    "City": "Windsor",
    "Country": "Canada",
    "IATA": "YQG",
    "ICAO": "CYQG",
    "Lat": 42.27560043334961,
    "Long": -82.95559692,
    "TimeZone": "America/Toronto"
  },
  {
    "AirportName": "Watson Lake Airport",
    "City": "Watson Lake",
    "Country": "Canada",
    "IATA": "YQH",
    "ICAO": "CYQH",
    "Lat": 60.11640167236328,
    "Long": -128.8220062,
    "TimeZone": "America/Vancouver"
  },
  {
    "AirportName": "Kenora Airport",
    "City": "Kenora",
    "Country": "Canada",
    "IATA": "YQK",
    "ICAO": "CYQK",
    "Lat": 49.788299560546875,
    "Long": -94.36309814,
    "TimeZone": "America/Winnipeg"
  },
  {
    "AirportName": "Lethbridge County Airport",
    "City": "Lethbridge",
    "Country": "Canada",
    "IATA": "YQL",
    "ICAO": "CYQL",
    "Lat": 49.63029861,
    "Long": -112.8000031,
    "TimeZone": "America/Edmonton"
  },
  {
    "AirportName": "Greater Moncton International Airport",
    "City": "Moncton",
    "Country": "Canada",
    "IATA": "YQM",
    "ICAO": "CYQM",
    "Lat": 46.11220169067383,
    "Long": -64.6785965,
    "TimeZone": "America/Halifax"
  },
  {
    "AirportName": "Comox Airport",
    "City": "Comox",
    "Country": "Canada",
    "IATA": "YQQ",
    "ICAO": "CYQQ",
    "Lat": 49.71080017089844,
    "Long": -124.887001,
    "TimeZone": "America/Vancouver"
  },
  {
    "AirportName": "Regina International Airport",
    "City": "Regina",
    "Country": "Canada",
    "IATA": "YQR",
    "ICAO": "CYQR",
    "Lat": 50.43190002441406,
    "Long": -104.6660004,
    "TimeZone": "America/Regina"
  },
  {
    "AirportName": "Thunder Bay Airport",
    "City": "Thunder Bay",
    "Country": "Canada",
    "IATA": "YQT",
    "ICAO": "CYQT",
    "Lat": 48.37189865112305,
    "Long": -89.32389832,
    "TimeZone": "America/Toronto"
  },
  {
    "AirportName": "Grande Prairie Airport",
    "City": "Grande Prairie",
    "Country": "Canada",
    "IATA": "YQU",
    "ICAO": "CYQU",
    "Lat": 55.17969894,
    "Long": -118.8850021,
    "TimeZone": "America/Edmonton"
  },
  {
    "AirportName": "Yorkton Municipal Airport",
    "City": "Yorkton",
    "Country": "Canada",
    "IATA": "YQV",
    "ICAO": "CYQV",
    "Lat": 51.26470184326172,
    "Long": -102.461998,
    "TimeZone": "America/Regina"
  },
  {
    "AirportName": "North Battleford Airport",
    "City": "North Battleford",
    "Country": "Canada",
    "IATA": "YQW",
    "ICAO": "CYQW",
    "Lat": 52.76919937133789,
    "Long": -108.2440033,
    "TimeZone": "America/Regina"
  },
  {
    "AirportName": "Gander International Airport",
    "City": "Gander",
    "Country": "Canada",
    "IATA": "YQX",
    "ICAO": "CYQX",
    "Lat": 48.93690109,
    "Long": -54.56809998,
    "TimeZone": "America/St_Johns"
  },
  {
    "AirportName": "Sydney / J.A. Douglas McCurdy Airport",
    "City": "Sydney",
    "Country": "Canada",
    "IATA": "YQY",
    "ICAO": "CYQY",
    "Lat": 46.1614,
    "Long": -60.047798,
    "TimeZone": "America/Halifax"
  },
  {
    "AirportName": "Quesnel Airport",
    "City": "Quesnel",
    "Country": "Canada",
    "IATA": "YQZ",
    "ICAO": "CYQZ",
    "Lat": 53.026100158691406,
    "Long": -122.5100021,
    "TimeZone": "America/Vancouver"
  },
  {
    "AirportName": "Resolute Bay Airport",
    "City": "Resolute",
    "Country": "Canada",
    "IATA": "YRB",
    "ICAO": "CYRB",
    "Lat": 74.71690369,
    "Long": -94.9693985,
    "TimeZone": "America/Winnipeg"
  },
  {
    "AirportName": "Rivière-du-Loup Airport",
    "City": "Riviere Du Loup",
    "Country": "Canada",
    "IATA": "YRI",
    "ICAO": "CYRI",
    "Lat": 47.764400482177734,
    "Long": -69.58470154,
    "TimeZone": "America/Toronto"
  },
  {
    "AirportName": "Roberval Airport",
    "City": "Roberval",
    "Country": "Canada",
    "IATA": "YRJ",
    "ICAO": "CYRJ",
    "Lat": 48.52000045776367,
    "Long": -72.26560211,
    "TimeZone": "America/Toronto"
  },
  {
    "AirportName": "Rocky Mountain House Airport",
    "City": "Rocky Mountain House",
    "Country": "Canada",
    "IATA": "YRM",
    "ICAO": "CYRM",
    "Lat": 52.42969894,
    "Long": -114.9039993,
    "TimeZone": "America/Edmonton"
  },
  {
    "AirportName": "Rankin Inlet Airport",
    "City": "Rankin Inlet",
    "Country": "Canada",
    "IATA": "YRT",
    "ICAO": "CYRT",
    "Lat": 62.81140137,
    "Long": -92.11579895,
    "TimeZone": "America/Winnipeg"
  },
  {
    "AirportName": "Sudbury Airport",
    "City": "Sudbury",
    "Country": "Canada",
    "IATA": "YSB",
    "ICAO": "CYSB",
    "Lat": 46.625,
    "Long": -80.79889679,
    "TimeZone": "America/Toronto"
  },
  {
    "AirportName": "Sherbrooke Airport",
    "City": "Sherbrooke",
    "Country": "Canada",
    "IATA": "YSC",
    "ICAO": "CYSC",
    "Lat": 45.43859863,
    "Long": -71.69139862,
    "TimeZone": "America/Toronto"
  },
  {
    "AirportName": "Saint John Airport",
    "City": "St. John",
    "Country": "Canada",
    "IATA": "YSJ",
    "ICAO": "CYSJ",
    "Lat": 45.31610107421875,
    "Long": -65.89029694,
    "TimeZone": "America/Halifax"
  },
  {
    "AirportName": "Fort Smith Airport",
    "City": "Fort Smith",
    "Country": "Canada",
    "IATA": "YSM",
    "ICAO": "CYSM",
    "Lat": 60.020301818847656,
    "Long": -111.961998,
    "TimeZone": "America/Edmonton"
  },
  {
    "AirportName": "Nanisivik Airport",
    "City": "Nanisivik",
    "Country": "Canada",
    "IATA": "YSR",
    "ICAO": "CYSR",
    "Lat": 72.982201,
    "Long": -84.613602,
    "TimeZone": "America/Toronto"
  },
  {
    "AirportName": "Summerside Airport",
    "City": "Summerside",
    "Country": "Canada",
    "IATA": "YSU",
    "ICAO": "CYSU",
    "Lat": 46.44060134887695,
    "Long": -63.83359909,
    "TimeZone": "America/Halifax"
  },
  {
    "AirportName": "Sachs Harbour (David Nasogaluak Jr. Saaryuaq) Airport",
    "City": "Sachs Harbour",
    "Country": "Canada",
    "IATA": "YSY",
    "ICAO": "CYSY",
    "Lat": 71.99389648,
    "Long": -125.2429962,
    "TimeZone": "America/Edmonton"
  },
  {
    "AirportName": "Cape Dorset Airport",
    "City": "Cape Dorset",
    "Country": "Canada",
    "IATA": "YTE",
    "ICAO": "CYTE",
    "Lat": 64.23000336,
    "Long": -76.52670288,
    "TimeZone": "America/Toronto"
  },
  {
    "AirportName": "Thompson Airport",
    "City": "Thompson",
    "Country": "Canada",
    "IATA": "YTH",
    "ICAO": "CYTH",
    "Lat": 55.80110168457031,
    "Long": -97.86419678,
    "TimeZone": "America/Winnipeg"
  },
  {
    "AirportName": "CFB Trenton",
    "City": "Trenton",
    "Country": "Canada",
    "IATA": "YTR",
    "ICAO": "CYTR",
    "Lat": 44.118900299072266,
    "Long": -77.52809906,
    "TimeZone": "America/Toronto"
  },
  {
    "AirportName": "Timmins/Victor M. Power",
    "City": "Timmins",
    "Country": "Canada",
    "IATA": "YTS",
    "ICAO": "CYTS",
    "Lat": 48.569698333699996,
    "Long": -81.37670136,
    "TimeZone": "America/Toronto"
  },
  {
    "AirportName": "Billy Bishop Toronto City Centre Airport",
    "City": "Toronto",
    "Country": "Canada",
    "IATA": "YTZ",
    "ICAO": "CYTZ",
    "Lat": 43.627499,
    "Long": -79.396202,
    "TimeZone": "America/Toronto"
  },
  {
    "AirportName": "Tuktoyaktuk Airport",
    "City": "Tuktoyaktuk",
    "Country": "Canada",
    "IATA": "YUB",
    "ICAO": "CYUB",
    "Lat": 69.43329620361328,
    "Long": -133.026001,
    "TimeZone": "America/Edmonton"
  },
  {
    "AirportName": "Montreal / Pierre Elliott Trudeau International Airport",
    "City": "Montreal",
    "Country": "Canada",
    "IATA": "YUL",
    "ICAO": "CYUL",
    "Lat": 45.47060013,
    "Long": -73.74079895,
    "TimeZone": "America/Toronto"
  },
  {
    "AirportName": "Repulse Bay Airport",
    "City": "Repulse Bay",
    "Country": "Canada",
    "IATA": "YUT",
    "ICAO": "CYUT",
    "Lat": 66.52140045,
    "Long": -86.22470093,
    "TimeZone": "America/Winnipeg"
  },
  {
    "AirportName": "Hall Beach Airport",
    "City": "Hall Beach",
    "Country": "Canada",
    "IATA": "YUX",
    "ICAO": "CYUX",
    "Lat": 68.77610015869999,
    "Long": -81.2425,
    "TimeZone": "America/Toronto"
  },
  {
    "AirportName": "Rouyn Noranda Airport",
    "City": "Rouyn",
    "Country": "Canada",
    "IATA": "YUY",
    "ICAO": "CYUY",
    "Lat": 48.20610046386719,
    "Long": -78.83560181,
    "TimeZone": "America/Toronto"
  },
  {
    "AirportName": "La Ronge Airport",
    "City": "La Ronge",
    "Country": "Canada",
    "IATA": "YVC",
    "ICAO": "CYVC",
    "Lat": 55.151401519800004,
    "Long": -105.262001,
    "TimeZone": "America/Regina"
  },
  {
    "AirportName": "Vermilion Airport",
    "City": "Vermillion",
    "Country": "Canada",
    "IATA": "YVG",
    "ICAO": "CYVG",
    "Lat": 53.355800628699996,
    "Long": -110.8239975,
    "TimeZone": "America/Edmonton"
  },
  {
    "AirportName": "Qikiqtarjuaq Airport",
    "City": "Broughton Island",
    "Country": "Canada",
    "IATA": "YVM",
    "ICAO": "CYVM",
    "Lat": 67.54579926,
    "Long": -64.03140259,
    "TimeZone": "America/Toronto"
  },
  {
    "AirportName": "Val-d'Or Airport",
    "City": "Val D'or",
    "Country": "Canada",
    "IATA": "YVO",
    "ICAO": "CYVO",
    "Lat": 48.05329895,
    "Long": -77.78279877,
    "TimeZone": "America/Toronto"
  },
  {
    "AirportName": "Kuujjuaq Airport",
    "City": "Quujjuaq",
    "Country": "Canada",
    "IATA": "YVP",
    "ICAO": "CYVP",
    "Lat": 58.096099853515625,
    "Long": -68.42690277,
    "TimeZone": "America/Toronto"
  },
  {
    "AirportName": "Norman Wells Airport",
    "City": "Norman Wells",
    "Country": "Canada",
    "IATA": "YVQ",
    "ICAO": "CYVQ",
    "Lat": 65.28160095214844,
    "Long": -126.7979965,
    "TimeZone": "America/Edmonton"
  },
  {
    "AirportName": "Vancouver International Airport",
    "City": "Vancouver",
    "Country": "Canada",
    "IATA": "YVR",
    "ICAO": "CYVR",
    "Lat": 49.19390106,
    "Long": -123.1839981,
    "TimeZone": "America/Vancouver"
  },
  {
    "AirportName": "Buffalo Narrows Airport",
    "City": "Buffalo Narrows",
    "Country": "Canada",
    "IATA": "YVT",
    "ICAO": "CYVT",
    "Lat": 55.84189987,
    "Long": -108.4179993,
    "TimeZone": "America/Regina"
  },
  {
    "AirportName": "Wiarton Airport",
    "City": "Wiarton",
    "Country": "Canada",
    "IATA": "YVV",
    "ICAO": "CYVV",
    "Lat": 44.7458,
    "Long": -81.107201,
    "TimeZone": "America/Toronto"
  },
  {
    "AirportName": "Petawawa Airport",
    "City": "Petawawa",
    "Country": "Canada",
    "IATA": "YWA",
    "ICAO": "CYWA",
    "Lat": 45.95220184326172,
    "Long": -77.31919861,
    "TimeZone": "America/Toronto"
  },
  {
    "AirportName": "Winnipeg / James Armstrong Richardson International Airport",
    "City": "Winnipeg",
    "Country": "Canada",
    "IATA": "YWG",
    "ICAO": "CYWG",
    "Lat": 49.909999847399995,
    "Long": -97.23989868,
    "TimeZone": "America/Winnipeg"
  },
  {
    "AirportName": "Wabush Airport",
    "City": "Wabush",
    "Country": "Canada",
    "IATA": "YWK",
    "ICAO": "CYWK",
    "Lat": 52.92190170288086,
    "Long": -66.86440277,
    "TimeZone": "America/Halifax"
  },
  {
    "AirportName": "Williams Lake Airport",
    "City": "Williams Lake",
    "Country": "Canada",
    "IATA": "YWL",
    "ICAO": "CYWL",
    "Lat": 52.18310165,
    "Long": -122.0540009,
    "TimeZone": "America/Vancouver"
  },
  {
    "AirportName": "Wrigley Airport",
    "City": "Wrigley",
    "Country": "Canada",
    "IATA": "YWY",
    "ICAO": "CYWY",
    "Lat": 63.20940017700195,
    "Long": -123.4369965,
    "TimeZone": "America/Edmonton"
  },
  {
    "AirportName": "Cranbrook/Canadian Rockies International Airport",
    "City": "Cranbrook",
    "Country": "Canada",
    "IATA": "YXC",
    "ICAO": "CYXC",
    "Lat": 49.6108017,
    "Long": -115.7819977,
    "TimeZone": "America/Edmonton"
  },
  {
    "AirportName": "Edmonton City Centre (Blatchford Field) Airport",
    "City": "Edmonton",
    "Country": "Canada",
    "IATA": "YXD",
    "ICAO": "CYXD",
    "Lat": 53.57249832,
    "Long": -113.5210037,
    "TimeZone": "America/Edmonton"
  },
  {
    "AirportName": "Saskatoon John G. Diefenbaker International Airport",
    "City": "Saskatoon",
    "Country": "Canada",
    "IATA": "YXE",
    "ICAO": "CYXE",
    "Lat": 52.170799255371094,
    "Long": -106.6999969,
    "TimeZone": "America/Regina"
  },
  {
    "AirportName": "Medicine Hat Airport",
    "City": "Medicine Hat",
    "Country": "Canada",
    "IATA": "YXH",
    "ICAO": "CYXH",
    "Lat": 50.01890182495117,
    "Long": -110.7210007,
    "TimeZone": "America/Edmonton"
  },
  {
    "AirportName": "Fort St John Airport",
    "City": "Fort Saint John",
    "Country": "Canada",
    "IATA": "YXJ",
    "ICAO": "CYXJ",
    "Lat": 56.23809814453125,
    "Long": -120.7399979,
    "TimeZone": "America/Dawson_Creek"
  },
  {
    "AirportName": "Sioux Lookout Airport",
    "City": "Sioux Lookout",
    "Country": "Canada",
    "IATA": "YXL",
    "ICAO": "CYXL",
    "Lat": 50.11389923095703,
    "Long": -91.90529633,
    "TimeZone": "America/Winnipeg"
  },
  {
    "AirportName": "Pangnirtung Airport",
    "City": "Pangnirtung",
    "Country": "Canada",
    "IATA": "YXP",
    "ICAO": "CYXP",
    "Lat": 66.14499664,
    "Long": -65.71360016,
    "TimeZone": "America/Toronto"
  },
  {
    "AirportName": "Earlton (Timiskaming Regional) Airport",
    "City": "Earlton",
    "Country": "Canada",
    "IATA": "YXR",
    "ICAO": "CYXR",
    "Lat": 47.697400654599996,
    "Long": -79.84734535,
    "TimeZone": "America/Toronto"
  },
  {
    "AirportName": "Prince George Airport",
    "City": "Prince George",
    "Country": "Canada",
    "IATA": "YXS",
    "ICAO": "CYXS",
    "Lat": 53.88940048,
    "Long": -122.6790009,
    "TimeZone": "America/Vancouver"
  },
  {
    "AirportName": "Northwest Regional Airport Terrace-Kitimat",
    "City": "Terrace",
    "Country": "Canada",
    "IATA": "YXT",
    "ICAO": "CYXT",
    "Lat": 54.468498,
    "Long": -128.576009,
    "TimeZone": "America/Vancouver"
  },
  {
    "AirportName": "London Airport",
    "City": "London",
    "Country": "Canada",
    "IATA": "YXU",
    "ICAO": "CYXU",
    "Lat": 43.035599,
    "Long": -81.1539,
    "TimeZone": "America/Toronto"
  },
  {
    "AirportName": "Abbotsford Airport",
    "City": "Abbotsford",
    "Country": "Canada",
    "IATA": "YXX",
    "ICAO": "CYXX",
    "Lat": 49.025299072265625,
    "Long": -122.3610001,
    "TimeZone": "America/Vancouver"
  },
  {
    "AirportName": "Whitehorse / Erik Nielsen International Airport",
    "City": "Whitehorse",
    "Country": "Canada",
    "IATA": "YXY",
    "ICAO": "CYXY",
    "Lat": 60.70959854,
    "Long": -135.0670013,
    "TimeZone": "America/Vancouver"
  },
  {
    "AirportName": "North Bay Jack Garland Airport",
    "City": "North Bay",
    "Country": "Canada",
    "IATA": "YYB",
    "ICAO": "CYYB",
    "Lat": 46.363602,
    "Long": -79.422798,
    "TimeZone": "America/Toronto"
  },
  {
    "AirportName": "Calgary International Airport",
    "City": "Calgary",
    "Country": "Canada",
    "IATA": "YYC",
    "ICAO": "CYYC",
    "Lat": 51.11389923,
    "Long": -114.0199966,
    "TimeZone": "America/Edmonton"
  },
  {
    "AirportName": "Smithers Airport",
    "City": "Smithers",
    "Country": "Canada",
    "IATA": "YYD",
    "ICAO": "CYYD",
    "Lat": 54.82469940185547,
    "Long": -127.1829987,
    "TimeZone": "America/Vancouver"
  },
  {
    "AirportName": "Fort Nelson Airport",
    "City": "Fort Nelson",
    "Country": "Canada",
    "IATA": "YYE",
    "ICAO": "CYYE",
    "Lat": 58.83639908,
    "Long": -122.5970001,
    "TimeZone": "America/Vancouver"
  },
  {
    "AirportName": "Penticton Airport",
    "City": "Penticton",
    "Country": "Canada",
    "IATA": "YYF",
    "ICAO": "CYYF",
    "Lat": 49.46310043334961,
    "Long": -119.6019974,
    "TimeZone": "America/Vancouver"
  },
  {
    "AirportName": "Charlottetown Airport",
    "City": "Charlottetown",
    "Country": "Canada",
    "IATA": "YYG",
    "ICAO": "CYYG",
    "Lat": 46.290000915527344,
    "Long": -63.12110138,
    "TimeZone": "America/Halifax"
  },
  {
    "AirportName": "Taloyoak Airport",
    "City": "Spence Bay",
    "Country": "Canada",
    "IATA": "YYH",
    "ICAO": "CYYH",
    "Lat": 69.54669952,
    "Long": -93.5766983,
    "TimeZone": "America/Edmonton"
  },
  {
    "AirportName": "Victoria International Airport",
    "City": "Victoria",
    "Country": "Canada",
    "IATA": "YYJ",
    "ICAO": "CYYJ",
    "Lat": 48.64690018,
    "Long": -123.4260025,
    "TimeZone": "America/Vancouver"
  },
  {
    "AirportName": "Lynn Lake Airport",
    "City": "Lynn Lake",
    "Country": "Canada",
    "IATA": "YYL",
    "ICAO": "CYYL",
    "Lat": 56.86389923095703,
    "Long": -101.0759964,
    "TimeZone": "America/Winnipeg"
  },
  {
    "AirportName": "Swift Current Airport",
    "City": "Swift Current",
    "Country": "Canada",
    "IATA": "YYN",
    "ICAO": "CYYN",
    "Lat": 50.291900634799994,
    "Long": -107.6910019,
    "TimeZone": "America/Regina"
  },
  {
    "AirportName": "Churchill Airport",
    "City": "Churchill",
    "Country": "Canada",
    "IATA": "YYQ",
    "ICAO": "CYYQ",
    "Lat": 58.739200592041016,
    "Long": -94.06500244,
    "TimeZone": "America/Winnipeg"
  },
  {
    "AirportName": "Goose Bay Airport",
    "City": "Goose Bay",
    "Country": "Canada",
    "IATA": "YYR",
    "ICAO": "CYYR",
    "Lat": 53.31919861,
    "Long": -60.42580032,
    "TimeZone": "America/Halifax"
  },
  {
    "AirportName": "St. John's International Airport",
    "City": "St. John's",
    "Country": "Canada",
    "IATA": "YYT",
    "ICAO": "CYYT",
    "Lat": 47.61859894,
    "Long": -52.75189972,
    "TimeZone": "America/St_Johns"
  },
  {
    "AirportName": "Kapuskasing Airport",
    "City": "Kapuskasing",
    "Country": "Canada",
    "IATA": "YYU",
    "ICAO": "CYYU",
    "Lat": 49.41389846801758,
    "Long": -82.46749878,
    "TimeZone": "America/Toronto"
  },
  {
    "AirportName": "Armstrong Airport",
    "City": "Armstrong",
    "Country": "Canada",
    "IATA": "YYW",
    "ICAO": "CYYW",
    "Lat": 50.29029846191406,
    "Long": -88.90969849,
    "TimeZone": "America/Toronto"
  },
  {
    "AirportName": "Mont Joli Airport",
    "City": "Mont Joli",
    "Country": "Canada",
    "IATA": "YYY",
    "ICAO": "CYYY",
    "Lat": 48.60860061645508,
    "Long": -68.20809937,
    "TimeZone": "America/Toronto"
  },
  {
    "AirportName": "Lester B. Pearson International Airport",
    "City": "Toronto",
    "Country": "Canada",
    "IATA": "YYZ",
    "ICAO": "CYYZ",
    "Lat": 43.67720032,
    "Long": -79.63059998,
    "TimeZone": "America/Toronto"
  },
  {
    "AirportName": "Downsview Airport",
    "City": "Toronto",
    "Country": "Canada",
    "IATA": "YZD",
    "ICAO": "CYZD",
    "Lat": 43.74250030517578,
    "Long": -79.46559906,
    "TimeZone": "America/Toronto"
  },
  {
    "AirportName": "Gore Bay Manitoulin Airport",
    "City": "Gore Bay",
    "Country": "Canada",
    "IATA": "YZE",
    "ICAO": "CYZE",
    "Lat": 45.88529968261719,
    "Long": -82.56780243,
    "TimeZone": "America/Toronto"
  },
  {
    "AirportName": "Yellowknife Airport",
    "City": "Yellowknife",
    "Country": "Canada",
    "IATA": "YZF",
    "ICAO": "CYZF",
    "Lat": 62.462799072265625,
    "Long": -114.4400024,
    "TimeZone": "America/Edmonton"
  },
  {
    "AirportName": "Slave Lake Airport",
    "City": "Slave Lake",
    "Country": "Canada",
    "IATA": "YZH",
    "ICAO": "CYZH",
    "Lat": 55.29309845,
    "Long": -114.7770004,
    "TimeZone": "America/Edmonton"
  },
  {
    "AirportName": "Sandspit Airport",
    "City": "Sandspit",
    "Country": "Canada",
    "IATA": "YZP",
    "ICAO": "CYZP",
    "Lat": 53.25429916379999,
    "Long": -131.8139954,
    "TimeZone": "America/Vancouver"
  },
  {
    "AirportName": "Chris Hadfield Airport",
    "City": "Sarnia",
    "Country": "Canada",
    "IATA": "YZR",
    "ICAO": "CYZR",
    "Lat": 42.99940109,
    "Long": -82.30889893,
    "TimeZone": "America/Toronto"
  },
  {
    "AirportName": "Port Hardy Airport",
    "City": "Port Hardy",
    "Country": "Canada",
    "IATA": "YZT",
    "ICAO": "CYZT",
    "Lat": 50.680599212646484,
    "Long": -127.3669968,
    "TimeZone": "America/Vancouver"
  },
  {
    "AirportName": "Whitecourt Airport",
    "City": "Whitecourt",
    "Country": "Canada",
    "IATA": "YZU",
    "ICAO": "CYZU",
    "Lat": 54.14390182495117,
    "Long": -115.7870026,
    "TimeZone": "America/Edmonton"
  },
  {
    "AirportName": "Sept-Îles Airport",
    "City": "Sept-iles",
    "Country": "Canada",
    "IATA": "YZV",
    "ICAO": "CYZV",
    "Lat": 50.22330093383789,
    "Long": -66.26560211,
    "TimeZone": "America/Toronto"
  },
  {
    "AirportName": "Teslin Airport",
    "City": "Teslin",
    "Country": "Canada",
    "IATA": "YZW",
    "ICAO": "CYZW",
    "Lat": 60.17279815673828,
    "Long": -132.7429962,
    "TimeZone": "America/Vancouver"
  },
  {
    "AirportName": "CFB Greenwood",
    "City": "Greenwood",
    "Country": "Canada",
    "IATA": "YZX",
    "ICAO": "CYZX",
    "Lat": 44.98440170288086,
    "Long": -64.91690063,
    "TimeZone": "America/Halifax"
  },
  {
    "AirportName": "Faro Airport",
    "City": "Faro",
    "Country": "Canada",
    "IATA": "ZFA",
    "ICAO": "CZFA",
    "Lat": 62.20750045776367,
    "Long": -133.3760071,
    "TimeZone": "America/Vancouver"
  },
  {
    "AirportName": "Fort Mcpherson Airport",
    "City": "Fort Mcpherson",
    "Country": "Canada",
    "IATA": "ZFM",
    "ICAO": "CZFM",
    "Lat": 67.40750122070312,
    "Long": -134.8609924,
    "TimeZone": "America/Edmonton"
  },
  {
    "AirportName": "Blida Airport",
    "City": "Blida",
    "Country": "Algeria",
    "IATA": "QLD",
    "ICAO": "DAAB",
    "Lat": 36.50360107421875,
    "Long": 2.8141698837280273,
    "TimeZone": "Africa/Algiers"
  },
  {
    "AirportName": "Bou Saada Airport",
    "City": "Bou Saada",
    "Country": "Algeria",
    "IATA": "BUJ",
    "ICAO": "DAAD",
    "Lat": 35.33250045776367,
    "Long": 4.206389904022217,
    "TimeZone": "Africa/Algiers"
  },
  {
    "AirportName": "Soummam Airport",
    "City": "Bejaja",
    "Country": "Algeria",
    "IATA": "BJA",
    "ICAO": "DAAE",
    "Lat": 36.7120018,
    "Long": 5.0699200630200005,
    "TimeZone": "Africa/Algiers"
  },
  {
    "AirportName": "Houari Boumediene Airport",
    "City": "Algier",
    "Country": "Algeria",
    "IATA": "ALG",
    "ICAO": "DAAG",
    "Lat": 36.691001892089844,
    "Long": 3.215409994125366,
    "TimeZone": "Africa/Algiers"
  },
  {
    "AirportName": "Djanet Inedbirene Airport",
    "City": "Djanet",
    "Country": "Algeria",
    "IATA": "DJG",
    "ICAO": "DAAJ",
    "Lat": 24.292801,
    "Long": 9.45244,
    "TimeZone": "Africa/Algiers"
  },
  {
    "AirportName": "Illizi Takhamalt Airport",
    "City": "Illizi",
    "Country": "Algeria",
    "IATA": "VVZ",
    "ICAO": "DAAP",
    "Lat": 26.7234993,
    "Long": 8.622650146,
    "TimeZone": "Africa/Algiers"
  },
  {
    "AirportName": "Aguenar – Hadj Bey Akhamok Airport",
    "City": "Tamanrasset",
    "Country": "Algeria",
    "IATA": "TMR",
    "ICAO": "DAAT",
    "Lat": 22.81150055,
    "Long": 5.451079845,
    "TimeZone": "Africa/Algiers"
  },
  {
    "AirportName": "Jijel Ferhat Abbas Airport",
    "City": "Jijel",
    "Country": "Algeria",
    "IATA": "GJL",
    "ICAO": "DAAV",
    "Lat": 36.79510117,
    "Long": 5.87361002,
    "TimeZone": "Africa/Algiers"
  },
  {
    "AirportName": "Mecheria Airport",
    "City": "Mecheria",
    "Country": "Algeria",
    "IATA": "MZW",
    "ICAO": "DAAY",
    "Lat": 33.53590012,
    "Long": -0.242353007,
    "TimeZone": "Africa/Algiers"
  },
  {
    "AirportName": "Rabah Bitat Airport",
    "City": "Annaba",
    "Country": "Algeria",
    "IATA": "AAE",
    "ICAO": "DABB",
    "Lat": 36.822201,
    "Long": 7.809174,
    "TimeZone": "Africa/Algiers"
  },
  {
    "AirportName": "Mohamed Boudiaf International Airport",
    "City": "Constantine",
    "Country": "Algeria",
    "IATA": "CZL",
    "ICAO": "DABC",
    "Lat": 36.27600098,
    "Long": 6.620389938354492,
    "TimeZone": "Africa/Algiers"
  },
  {
    "AirportName": "Cheikh Larbi Tébessi Airport",
    "City": "Tebessa",
    "Country": "Algeria",
    "IATA": "TEE",
    "ICAO": "DABS",
    "Lat": 35.43159866,
    "Long": 8.12071991,
    "TimeZone": "Africa/Algiers"
  },
  {
    "AirportName": "Hassi R'Mel Airport",
    "City": "Tilrempt",
    "Country": "Algeria",
    "IATA": "HRM",
    "ICAO": "DAFH",
    "Lat": 32.93040084838867,
    "Long": 3.311539888381958,
    "TimeZone": "Africa/Algiers"
  },
  {
    "AirportName": "Bou Chekif Airport",
    "City": "Tiaret",
    "Country": "Algeria",
    "IATA": "TID",
    "ICAO": "DAOB",
    "Lat": 35.34109879,
    "Long": 1.463150024,
    "TimeZone": "Africa/Algiers"
  },
  {
    "AirportName": "Tindouf Airport",
    "City": "Tindouf",
    "Country": "Algeria",
    "IATA": "TIN",
    "ICAO": "DAOF",
    "Lat": 27.7003994,
    "Long": -8.167099953,
    "TimeZone": "Africa/Algiers"
  },
  {
    "AirportName": "Ech Cheliff Airport",
    "City": "Ech-cheliff",
    "Country": "Algeria",
    "IATA": "CFK",
    "ICAO": "DAOI",
    "Lat": 36.21269989,
    "Long": 1.331769943,
    "TimeZone": "Africa/Algiers"
  },
  {
    "AirportName": "Tafaraoui Airport",
    "City": "Oran",
    "Country": "Algeria",
    "IATA": "TAF",
    "ICAO": "DAOL",
    "Lat": 35.54240036010742,
    "Long": -0.532278001,
    "TimeZone": "Africa/Algiers"
  },
  {
    "AirportName": "Zenata – Messali El Hadj Airport",
    "City": "Tlemcen",
    "Country": "Algeria",
    "IATA": "TLM",
    "ICAO": "DAON",
    "Lat": 35.01670074,
    "Long": -1.450000048,
    "TimeZone": "Africa/Algiers"
  },
  {
    "AirportName": "Es Senia Airport",
    "City": "Oran",
    "Country": "Algeria",
    "IATA": "ORN",
    "ICAO": "DAOO",
    "Lat": 35.62390137,
    "Long": -0.621182978,
    "TimeZone": "Africa/Algiers"
  },
  {
    "AirportName": "Sidi Bel Abbes Airport",
    "City": "Sidi Bel Abbes",
    "Country": "Algeria",
    "IATA": "BFW",
    "ICAO": "DAOS",
    "Lat": 35.17179871,
    "Long": -0.593275011,
    "TimeZone": "Africa/Algiers"
  },
  {
    "AirportName": "Ghriss Airport",
    "City": "Ghriss",
    "Country": "Algeria",
    "IATA": "MUW",
    "ICAO": "DAOV",
    "Lat": 35.207698822021484,
    "Long": 0.14714199304580688,
    "TimeZone": "Africa/Algiers"
  },
  {
    "AirportName": "Touat Cheikh Sidi Mohamed Belkebir Airport",
    "City": "Adrar",
    "Country": "Algeria",
    "IATA": "AZR",
    "ICAO": "DAUA",
    "Lat": 27.837600708007812,
    "Long": -0.186414003,
    "TimeZone": "Africa/Algiers"
  },
  {
    "AirportName": "Biskra Airport",
    "City": "Biskra",
    "Country": "Algeria",
    "IATA": "BSK",
    "ICAO": "DAUB",
    "Lat": 34.793300628699996,
    "Long": 5.738230228,
    "TimeZone": "Africa/Algiers"
  },
  {
    "AirportName": "El Golea Airport",
    "City": "El Golea",
    "Country": "Algeria",
    "IATA": "ELG",
    "ICAO": "DAUE",
    "Lat": 30.571300506591797,
    "Long": 2.8595900535583496,
    "TimeZone": "Africa/Algiers"
  },
  {
    "AirportName": "Noumérat - Moufdi Zakaria Airport",
    "City": "Ghardaia",
    "Country": "Algeria",
    "IATA": "GHA",
    "ICAO": "DAUG",
    "Lat": 32.38410186767578,
    "Long": 3.794110059738159,
    "TimeZone": "Africa/Algiers"
  },
  {
    "AirportName": "Oued Irara Airport",
    "City": "Hassi Messaoud",
    "Country": "Algeria",
    "IATA": "HME",
    "ICAO": "DAUH",
    "Lat": 31.673000335699996,
    "Long": 6.140439987180001,
    "TimeZone": "Africa/Algiers"
  },
  {
    "AirportName": "In Salah Airport",
    "City": "In Salah",
    "Country": "Algeria",
    "IATA": "INZ",
    "ICAO": "DAUI",
    "Lat": 27.250999450699997,
    "Long": 2.512020111,
    "TimeZone": "Africa/Algiers"
  },
  {
    "AirportName": "Touggourt Sidi Madhi Airport",
    "City": "Touggourt",
    "Country": "Algeria",
    "IATA": "TGR",
    "ICAO": "DAUK",
    "Lat": 33.06779861450195,
    "Long": 6.088669776916504,
    "TimeZone": "Africa/Algiers"
  },
  {
    "AirportName": "Laghouat Airport",
    "City": "Laghouat",
    "Country": "Algeria",
    "IATA": "LOO",
    "ICAO": "DAUL",
    "Lat": 33.764400482199996,
    "Long": 2.928339958,
    "TimeZone": "Africa/Algiers"
  },
  {
    "AirportName": "Timimoun Airport",
    "City": "Timimoun",
    "Country": "Algeria",
    "IATA": "TMX",
    "ICAO": "DAUT",
    "Lat": 29.2371006,
    "Long": 0.276033014,
    "TimeZone": "Africa/Algiers"
  },
  {
    "AirportName": "Ain el Beida Airport",
    "City": "Ouargla",
    "Country": "Algeria",
    "IATA": "OGX",
    "ICAO": "DAUU",
    "Lat": 31.917200088500977,
    "Long": 5.412779808044434,
    "TimeZone": "Africa/Algiers"
  },
  {
    "AirportName": "In Aménas Airport",
    "City": "Zarzaitine",
    "Country": "Algeria",
    "IATA": "IAM",
    "ICAO": "DAUZ",
    "Lat": 28.0515,
    "Long": 9.64291,
    "TimeZone": "Africa/Algiers"
  },
  {
    "AirportName": "Cadjehoun Airport",
    "City": "Cotonou",
    "Country": "Benin",
    "IATA": "COO",
    "ICAO": "DBBB",
    "Lat": 6.357230186462402,
    "Long": 2.384350061416626,
    "TimeZone": "Africa/Porto-Novo"
  },
  {
    "AirportName": "Ouagadougou Airport",
    "City": "Ouagadougou",
    "Country": "Burkina Faso",
    "IATA": "OUA",
    "ICAO": "DFFD",
    "Lat": 12.3532,
    "Long": -1.51242,
    "TimeZone": "Africa/Ouagadougou"
  },
  {
    "AirportName": "Bobo Dioulasso Airport",
    "City": "Bobo-dioulasso",
    "Country": "Burkina Faso",
    "IATA": "BOY",
    "ICAO": "DFOO",
    "Lat": 11.160099983215332,
    "Long": -4.33096981,
    "TimeZone": "Africa/Ouagadougou"
  },
  {
    "AirportName": "Kotoka International Airport",
    "City": "Accra",
    "Country": "Ghana",
    "IATA": "ACC",
    "ICAO": "DGAA",
    "Lat": 5.605189800262451,
    "Long": -0.166786,
    "TimeZone": "Africa/Accra"
  },
  {
    "AirportName": "Tamale Airport",
    "City": "Tamale",
    "Country": "Ghana",
    "IATA": "TML",
    "ICAO": "DGLE",
    "Lat": 9.557189941,
    "Long": -0.863214016,
    "TimeZone": "Africa/Accra"
  },
  {
    "AirportName": "Sunyani Airport",
    "City": "Sunyani",
    "Country": "Ghana",
    "IATA": "NYI",
    "ICAO": "DGSN",
    "Lat": 7.361830234527588,
    "Long": -2.328759909,
    "TimeZone": "Africa/Accra"
  },
  {
    "AirportName": "Takoradi Airport",
    "City": "Takoradi",
    "Country": "Ghana",
    "IATA": "TKD",
    "ICAO": "DGTK",
    "Lat": 4.896059989929199,
    "Long": -1.774760008,
    "TimeZone": "Africa/Accra"
  },
  {
    "AirportName": "Port Bouet Airport",
    "City": "Abidjan",
    "Country": "Cote d'Ivoire",
    "IATA": "ABJ",
    "ICAO": "DIAP",
    "Lat": 5.261390209197998,
    "Long": -3.926290035,
    "TimeZone": "Africa/Abidjan"
  },
  {
    "AirportName": "Bouaké Airport",
    "City": "Bouake",
    "Country": "Cote d'Ivoire",
    "IATA": "BYK",
    "ICAO": "DIBK",
    "Lat": 7.738800048828125,
    "Long": -5.07366991,
    "TimeZone": "Africa/Abidjan"
  },
  {
    "AirportName": "Daloa Airport",
    "City": "Daloa",
    "Country": "Cote d'Ivoire",
    "IATA": "DJO",
    "ICAO": "DIDL",
    "Lat": 6.792809963226318,
    "Long": -6.473189831,
    "TimeZone": "Africa/Abidjan"
  },
  {
    "AirportName": "Korhogo Airport",
    "City": "Korhogo",
    "Country": "Cote d'Ivoire",
    "IATA": "HGO",
    "ICAO": "DIKO",
    "Lat": 9.387180328,
    "Long": -5.556660175,
    "TimeZone": "Africa/Abidjan"
  },
  {
    "AirportName": "Man Airport",
    "City": "Man",
    "Country": "Cote d'Ivoire",
    "IATA": "MJC",
    "ICAO": "DIMN",
    "Lat": 7.272069931030273,
    "Long": -7.587359905,
    "TimeZone": "Africa/Abidjan"
  },
  {
    "AirportName": "San Pedro Airport",
    "City": "San Pedro",
    "Country": "Cote d'Ivoire",
    "IATA": "SPY",
    "ICAO": "DISP",
    "Lat": 4.746719837188721,
    "Long": -6.660820007,
    "TimeZone": "Africa/Abidjan"
  },
  {
    "AirportName": "Yamoussoukro Airport",
    "City": "Yamoussoukro",
    "Country": "Cote d'Ivoire",
    "IATA": "ASK",
    "ICAO": "DIYO",
    "Lat": 6.903170109,
    "Long": -5.365580082,
    "TimeZone": "Africa/Abidjan"
  },
  {
    "AirportName": "Nnamdi Azikiwe International Airport",
    "City": "Abuja",
    "Country": "Nigeria",
    "IATA": "ABV",
    "ICAO": "DNAA",
    "Lat": 9.006790161132812,
    "Long": 7.263169765472412,
    "TimeZone": "Africa/Lagos"
  },
  {
    "AirportName": "Akure Airport",
    "City": "Akure",
    "Country": "Nigeria",
    "IATA": "AKR",
    "ICAO": "DNAK",
    "Lat": 7.246739864349365,
    "Long": 5.3010101318359375,
    "TimeZone": "Africa/Lagos"
  },
  {
    "AirportName": "Benin Airport",
    "City": "Benin",
    "Country": "Nigeria",
    "IATA": "BNI",
    "ICAO": "DNBE",
    "Lat": 6.316979885101318,
    "Long": 5.5995001792907715,
    "TimeZone": "Africa/Lagos"
  },
  {
    "AirportName": "Margaret Ekpo International Airport",
    "City": "Calabar",
    "Country": "Nigeria",
    "IATA": "CBQ",
    "ICAO": "DNCA",
    "Lat": 4.976019859313965,
    "Long": 8.347200393676758,
    "TimeZone": "Africa/Lagos"
  },
  {
    "AirportName": "Akanu Ibiam International Airport",
    "City": "Enugu",
    "Country": "Nigeria",
    "IATA": "ENU",
    "ICAO": "DNEN",
    "Lat": 6.474269866943359,
    "Long": 7.561960220336914,
    "TimeZone": "Africa/Lagos"
  },
  {
    "AirportName": "Ibadan Airport",
    "City": "Ibadan",
    "Country": "Nigeria",
    "IATA": "IBA",
    "ICAO": "DNIB",
    "Lat": 7.362460136413574,
    "Long": 3.978329897,
    "TimeZone": "Africa/Lagos"
  },
  {
    "AirportName": "Ilorin International Airport",
    "City": "Ilorin",
    "Country": "Nigeria",
    "IATA": "ILR",
    "ICAO": "DNIL",
    "Lat": 8.440210342407227,
    "Long": 4.493919849395752,
    "TimeZone": "Africa/Lagos"
  },
  {
    "AirportName": "Yakubu Gowon Airport",
    "City": "Jos",
    "Country": "Nigeria",
    "IATA": "JOS",
    "ICAO": "DNJO",
    "Lat": 9.639829635620117,
    "Long": 8.869050025939941,
    "TimeZone": "Africa/Lagos"
  },
  {
    "AirportName": "Kaduna Airport",
    "City": "Kaduna",
    "Country": "Nigeria",
    "IATA": "KAD",
    "ICAO": "DNKA",
    "Lat": 10.696000099182129,
    "Long": 7.320109844207764,
    "TimeZone": "Africa/Lagos"
  },
  {
    "AirportName": "Mallam Aminu International Airport",
    "City": "Kano",
    "Country": "Nigeria",
    "IATA": "KAN",
    "ICAO": "DNKN",
    "Lat": 12.0476,
    "Long": 8.52462,
    "TimeZone": "Africa/Lagos"
  },
  {
    "AirportName": "Maiduguri International Airport",
    "City": "Maiduguri",
    "Country": "Nigeria",
    "IATA": "MIU",
    "ICAO": "DNMA",
    "Lat": 11.855299949645996,
    "Long": 13.080900192260742,
    "TimeZone": "Africa/Lagos"
  },
  {
    "AirportName": "Makurdi Airport",
    "City": "Makurdi",
    "Country": "Nigeria",
    "IATA": "MDI",
    "ICAO": "DNMK",
    "Lat": 7.70388,
    "Long": 8.61394,
    "TimeZone": "Africa/Lagos"
  },
  {
    "AirportName": "Murtala Muhammed International Airport",
    "City": "Lagos",
    "Country": "Nigeria",
    "IATA": "LOS",
    "ICAO": "DNMM",
    "Lat": 6.5773701667785645,
    "Long": 3.321160078048706,
    "TimeZone": "Africa/Lagos"
  },
  {
    "AirportName": "Minna Airport",
    "City": "Minna",
    "Country": "Nigeria",
    "IATA": "MXJ",
    "ICAO": "DNMN",
    "Lat": 9.652170181274414,
    "Long": 6.462259769439697,
    "TimeZone": "Africa/Lagos"
  },
  {
    "AirportName": "Port Harcourt International Airport",
    "City": "Port Hartcourt",
    "Country": "Nigeria",
    "IATA": "PHC",
    "ICAO": "DNPO",
    "Lat": 5.0154900550842285,
    "Long": 6.949590206,
    "TimeZone": "Africa/Lagos"
  },
  {
    "AirportName": "Sadiq Abubakar III International Airport",
    "City": "Sokoto",
    "Country": "Nigeria",
    "IATA": "SKO",
    "ICAO": "DNSO",
    "Lat": 12.916299819946289,
    "Long": 5.207190036773682,
    "TimeZone": "Africa/Lagos"
  },
  {
    "AirportName": "Yola Airport",
    "City": "Yola",
    "Country": "Nigeria",
    "IATA": "YOL",
    "ICAO": "DNYO",
    "Lat": 9.257550239562988,
    "Long": 12.430399894714355,
    "TimeZone": "Africa/Lagos"
  },
  {
    "AirportName": "Zaria Airport",
    "City": "Zaria",
    "Country": "Nigeria",
    "IATA": "ZAR",
    "ICAO": "DNZA",
    "Lat": 11.1302,
    "Long": 7.68581,
    "TimeZone": "Africa/Lagos"
  },
  {
    "AirportName": "Maradi Airport",
    "City": "Maradi",
    "Country": "Niger",
    "IATA": "MFQ",
    "ICAO": "DRRM",
    "Lat": 13.50249958,
    "Long": 7.1267499923706055,
    "TimeZone": "Africa/Niamey"
  },
  {
    "AirportName": "Diori Hamani International Airport",
    "City": "Niamey",
    "Country": "Niger",
    "IATA": "NIM",
    "ICAO": "DRRN",
    "Lat": 13.4815,
    "Long": 2.18361,
    "TimeZone": "Africa/Niamey"
  },
  {
    "AirportName": "Tahoua Airport",
    "City": "Tahoua",
    "Country": "Niger",
    "IATA": "THZ",
    "ICAO": "DRRT",
    "Lat": 14.875699996948242,
    "Long": 5.265359878540039,
    "TimeZone": "Africa/Niamey"
  },
  {
    "AirportName": "Mano Dayak International Airport",
    "City": "Agadez",
    "Country": "Niger",
    "IATA": "AJY",
    "ICAO": "DRZA",
    "Lat": 16.965999603271484,
    "Long": 8.000109672546387,
    "TimeZone": "Africa/Niamey"
  },
  {
    "AirportName": "Zinder Airport",
    "City": "Zinder",
    "Country": "Niger",
    "IATA": "ZND",
    "ICAO": "DRZR",
    "Lat": 13.779000282287598,
    "Long": 8.983759880065918,
    "TimeZone": "Africa/Niamey"
  },
  {
    "AirportName": "Monastir Habib Bourguiba International Airport",
    "City": "Monastir",
    "Country": "Tunisia",
    "IATA": "MIR",
    "ICAO": "DTMB",
    "Lat": 35.75809860229492,
    "Long": 10.75469970703125,
    "TimeZone": "Africa/Tunis"
  },
  {
    "AirportName": "Tunis Carthage International Airport",
    "City": "Tunis",
    "Country": "Tunisia",
    "IATA": "TUN",
    "ICAO": "DTTA",
    "Lat": 36.85100173950195,
    "Long": 10.22719955444336,
    "TimeZone": "Africa/Tunis"
  },
  {
    "AirportName": "Gafsa Ksar International Airport",
    "City": "Gafsa",
    "Country": "Tunisia",
    "IATA": "GAF",
    "ICAO": "DTTF",
    "Lat": 34.422000885009766,
    "Long": 8.822500228881836,
    "TimeZone": "Africa/Tunis"
  },
  {
    "AirportName": "Gabès Matmata International Airport",
    "City": "Gabes",
    "Country": "Tunisia",
    "IATA": "GAE",
    "ICAO": "DTTG",
    "Lat": 33.87689971923828,
    "Long": 10.103300094604492,
    "TimeZone": "Africa/Tunis"
  },
  {
    "AirportName": "Djerba Zarzis International Airport",
    "City": "Djerba",
    "Country": "Tunisia",
    "IATA": "DJE",
    "ICAO": "DTTJ",
    "Lat": 33.875,
    "Long": 10.775500297546387,
    "TimeZone": "Africa/Tunis"
  },
  {
    "AirportName": "El Borma Airport",
    "City": "El Borma",
    "Country": "Tunisia",
    "IATA": "EBM",
    "ICAO": "DTTR",
    "Lat": 31.704299926757812,
    "Long": 9.254619598388672,
    "TimeZone": "Africa/Tunis"
  },
  {
    "AirportName": "Sfax Thyna International Airport",
    "City": "Sfax",
    "Country": "Tunisia",
    "IATA": "SFA",
    "ICAO": "DTTX",
    "Lat": 34.71799850463867,
    "Long": 10.690999984741211,
    "TimeZone": "Africa/Tunis"
  },
  {
    "AirportName": "Tozeur Nefta International Airport",
    "City": "Tozeur",
    "Country": "Tunisia",
    "IATA": "TOE",
    "ICAO": "DTTZ",
    "Lat": 33.939701080322266,
    "Long": 8.110560417175293,
    "TimeZone": "Africa/Tunis"
  },
  {
    "AirportName": "Niamtougou International Airport",
    "City": "Niatougou",
    "Country": "Togo",
    "IATA": "LRL",
    "ICAO": "DXNG",
    "Lat": 9.767330169677734,
    "Long": 1.091249942779541,
    "TimeZone": "Africa/Lome"
  },
  {
    "AirportName": "Lomé-Tokoin Airport",
    "City": "Lome",
    "Country": "Togo",
    "IATA": "LFW",
    "ICAO": "DXXX",
    "Lat": 6.165609836578369,
    "Long": 1.2545100450515747,
    "TimeZone": "Africa/Lome"
  },
  {
    "AirportName": "Antwerp International Airport (Deurne)",
    "City": "Antwerp",
    "Country": "Belgium",
    "IATA": "ANR",
    "ICAO": "EBAW",
    "Lat": 51.18939972,
    "Long": 4.460279942,
    "TimeZone": "Europe/Brussels"
  },
  {
    "AirportName": "Brussels Airport",
    "City": "Brussels",
    "Country": "Belgium",
    "IATA": "BRU",
    "ICAO": "EBBR",
    "Lat": 50.901401519800004,
    "Long": 4.48443985,
    "TimeZone": "Europe/Brussels"
  },
  {
    "AirportName": "Brussels South Charleroi Airport",
    "City": "Charleroi",
    "Country": "Belgium",
    "IATA": "CRL",
    "ICAO": "EBCI",
    "Lat": 50.459202,
    "Long": 4.45382,
    "TimeZone": "Europe/Brussels"
  },
  {
    "AirportName": "Wevelgem Airport",
    "City": "Kortrijk-vevelgem",
    "Country": "Belgium",
    "IATA": "KJK",
    "ICAO": "EBKT",
    "Lat": 50.81719971,
    "Long": 3.20472002,
    "TimeZone": "Europe/Brussels"
  },
  {
    "AirportName": "Liège Airport",
    "City": "Liege",
    "Country": "Belgium",
    "IATA": "LGG",
    "ICAO": "EBLG",
    "Lat": 50.63740158081055,
    "Long": 5.443220138549805,
    "TimeZone": "Europe/Brussels"
  },
  {
    "AirportName": "Ostend-Bruges International Airport",
    "City": "Ostend",
    "Country": "Belgium",
    "IATA": "OST",
    "ICAO": "EBOS",
    "Lat": 51.198898315399994,
    "Long": 2.862220049,
    "TimeZone": "Europe/Brussels"
  },
  {
    "AirportName": "Zoersel (Oostmalle) Airfield",
    "City": "Zoersel",
    "Country": "Belgium",
    "IATA": "OBL",
    "ICAO": "EBZR",
    "Lat": 51.264702,
    "Long": 4.75333,
    "TimeZone": "Europe/Brussels"
  },
  {
    "AirportName": "Altenburg-Nobitz Airport",
    "City": "Altenburg",
    "Country": "Germany",
    "IATA": "AOC",
    "ICAO": "EDAC",
    "Lat": 50.981945,
    "Long": 12.506389,
    "TimeZone": "Europe/Berlin"
  },
  {
    "AirportName": "Riesa-Göhlis Airport",
    "City": "Riesa",
    "Country": "Germany",
    "IATA": "IES",
    "ICAO": "EDAU",
    "Lat": 51.29360962,
    "Long": 13.35611057,
    "TimeZone": "Europe/Berlin"
  },
  {
    "AirportName": "Rechlin-Lärz Airport",
    "City": "Rechlin-laerz",
    "Country": "Germany",
    "IATA": "REB",
    "ICAO": "EDAX",
    "Lat": 53.30638886,
    "Long": 12.75222206,
    "TimeZone": "Europe/Berlin"
  },
  {
    "AirportName": "Schönhagen Airport",
    "City": "Schoenhagen",
    "Country": "Germany",
    "IATA": "QXH",
    "ICAO": "EDAZ",
    "Lat": 52.203609,
    "Long": 13.156389,
    "TimeZone": "Europe/Berlin"
  },
  {
    "AirportName": "Barth Airport",
    "City": "Barth",
    "Country": "Germany",
    "IATA": "BBH",
    "ICAO": "EDBH",
    "Lat": 54.338253,
    "Long": 12.710515,
    "TimeZone": "Europe/Berlin"
  },
  {
    "AirportName": "Magdeburg \"City\" Airport",
    "City": "Magdeburg",
    "Country": "Germany",
    "IATA": "ZMG",
    "ICAO": "EDBM",
    "Lat": 52.073612,
    "Long": 11.626389,
    "TimeZone": "Europe/Berlin"
  },
  {
    "AirportName": "Cottbus-Drewitz Airport",
    "City": "Cottbus",
    "Country": "Germany",
    "IATA": "CBU",
    "ICAO": "EDCD",
    "Lat": 51.889442,
    "Long": 14.531944,
    "TimeZone": "Europe/Berlin"
  },
  {
    "AirportName": "Berlin-Schönefeld Airport",
    "City": "Berlin",
    "Country": "Germany",
    "IATA": "SXF",
    "ICAO": "EDDB",
    "Lat": 52.380001,
    "Long": 13.5225,
    "TimeZone": "Europe/Berlin"
  },
  {
    "AirportName": "Dresden Airport",
    "City": "Dresden",
    "Country": "Germany",
    "IATA": "DRS",
    "ICAO": "EDDC",
    "Lat": 51.13280106,
    "Long": 13.767200469970703,
    "TimeZone": "Europe/Berlin"
  },
  {
    "AirportName": "Erfurt Airport",
    "City": "Erfurt",
    "Country": "Germany",
    "IATA": "ERF",
    "ICAO": "EDDE",
    "Lat": 50.979801177978516,
    "Long": 10.958100318908691,
    "TimeZone": "Europe/Berlin"
  },
  {
    "AirportName": "Frankfurt am Main Airport",
    "City": "Frankfurt",
    "Country": "Germany",
    "IATA": "FRA",
    "ICAO": "EDDF",
    "Lat": 50.033333,
    "Long": 8.570556,
    "TimeZone": "Europe/Berlin"
  },
  {
    "AirportName": "Münster Osnabrück Airport",
    "City": "Munster",
    "Country": "Germany",
    "IATA": "FMO",
    "ICAO": "EDDG",
    "Lat": 52.13460159,
    "Long": 7.684830189,
    "TimeZone": "Europe/Berlin"
  },
  {
    "AirportName": "Hamburg Airport",
    "City": "Hamburg",
    "Country": "Germany",
    "IATA": "HAM",
    "ICAO": "EDDH",
    "Lat": 53.63040161,
    "Long": 9.988229752,
    "TimeZone": "Europe/Berlin"
  },
  {
    "AirportName": "Berlin-Tempelhof International Airport",
    "City": "Berlin",
    "Country": "Germany",
    "IATA": "THF",
    "ICAO": "EDDI",
    "Lat": 52.472999572753906,
    "Long": 13.403900146484375,
    "TimeZone": "Europe/Berlin"
  },
  {
    "AirportName": "Cologne Bonn Airport",
    "City": "Cologne",
    "Country": "Germany",
    "IATA": "CGN",
    "ICAO": "EDDK",
    "Lat": 50.86589813,
    "Long": 7.142739773,
    "TimeZone": "Europe/Berlin"
  },
  {
    "AirportName": "Düsseldorf Airport",
    "City": "Duesseldorf",
    "Country": "Germany",
    "IATA": "DUS",
    "ICAO": "EDDL",
    "Lat": 51.289501,
    "Long": 6.76678,
    "TimeZone": "Europe/Berlin"
  },
  {
    "AirportName": "Munich Airport",
    "City": "Munich",
    "Country": "Germany",
    "IATA": "MUC",
    "ICAO": "EDDM",
    "Lat": 48.353802,
    "Long": 11.7861,
    "TimeZone": "Europe/Berlin"
  },
  {
    "AirportName": "Nuremberg Airport",
    "City": "Nuernberg",
    "Country": "Germany",
    "IATA": "NUE",
    "ICAO": "EDDN",
    "Lat": 49.498699,
    "Long": 11.078056,
    "TimeZone": "Europe/Berlin"
  },
  {
    "AirportName": "Leipzig/Halle Airport",
    "City": "Leipzig",
    "Country": "Germany",
    "IATA": "LEJ",
    "ICAO": "EDDP",
    "Lat": 51.423889,
    "Long": 12.236389,
    "TimeZone": "Europe/Berlin"
  },
  {
    "AirportName": "Saarbrücken Airport",
    "City": "Saarbruecken",
    "Country": "Germany",
    "IATA": "SCN",
    "ICAO": "EDDR",
    "Lat": 49.214599609400004,
    "Long": 7.109509945,
    "TimeZone": "Europe/Berlin"
  },
  {
    "AirportName": "Stuttgart Airport",
    "City": "Stuttgart",
    "Country": "Germany",
    "IATA": "STR",
    "ICAO": "EDDS",
    "Lat": 48.689899444599995,
    "Long": 9.221960068,
    "TimeZone": "Europe/Berlin"
  },
  {
    "AirportName": "Berlin-Tegel Airport",
    "City": "Berlin",
    "Country": "Germany",
    "IATA": "TXL",
    "ICAO": "EDDT",
    "Lat": 52.5597,
    "Long": 13.2877,
    "TimeZone": "Europe/Berlin"
  },
  {
    "AirportName": "Hannover Airport",
    "City": "Hannover",
    "Country": "Germany",
    "IATA": "HAJ",
    "ICAO": "EDDV",
    "Lat": 52.46110153,
    "Long": 9.685079574580001,
    "TimeZone": "Europe/Berlin"
  },
  {
    "AirportName": "Bremen Airport",
    "City": "Bremen",
    "Country": "Germany",
    "IATA": "BRE",
    "ICAO": "EDDW",
    "Lat": 53.04750061,
    "Long": 8.786669731,
    "TimeZone": "Europe/Berlin"
  },
  {
    "AirportName": "Frankfurt-Egelsbach Airport",
    "City": "Egelsbach",
    "Country": "Germany",
    "IATA": "QEF",
    "ICAO": "EDFE",
    "Lat": 49.959999,
    "Long": 8.645833,
    "TimeZone": "Europe/Berlin"
  },
  {
    "AirportName": "Frankfurt-Hahn Airport",
    "City": "Hahn",
    "Country": "Germany",
    "IATA": "HHN",
    "ICAO": "EDFH",
    "Lat": 49.9487,
    "Long": 7.26389,
    "TimeZone": "Europe/Berlin"
  },
  {
    "AirportName": "Mannheim-City Airport",
    "City": "Mannheim",
    "Country": "Germany",
    "IATA": "MHG",
    "ICAO": "EDFM",
    "Lat": 49.473057,
    "Long": 8.514167,
    "TimeZone": "Europe/Berlin"
  },
  {
    "AirportName": "Eisenach-Kindel Airport",
    "City": "Eisenach",
    "Country": "Germany",
    "IATA": "EIB",
    "ICAO": "EDGE",
    "Lat": 50.991604,
    "Long": 10.47973,
    "TimeZone": "Europe/Berlin"
  },
  {
    "AirportName": "Siegerland Airport",
    "City": "Siegerland",
    "Country": "Germany",
    "IATA": "SGE",
    "ICAO": "EDGS",
    "Lat": 50.707698822021484,
    "Long": 8.082969665527344,
    "TimeZone": "Europe/Berlin"
  },
  {
    "AirportName": "Hamburg-Finkenwerder Airport",
    "City": "Hamburg",
    "Country": "Germany",
    "IATA": "XFW",
    "ICAO": "EDHI",
    "Lat": 53.53527832,
    "Long": 9.835556030273438,
    "TimeZone": "Europe/Berlin"
  },
  {
    "AirportName": "Kiel-Holtenau Airport",
    "City": "Kiel",
    "Country": "Germany",
    "IATA": "KEL",
    "ICAO": "EDHK",
    "Lat": 54.37944412231445,
    "Long": 10.145277976989746,
    "TimeZone": "Europe/Berlin"
  },
  {
    "AirportName": "Lübeck Blankensee Airport",
    "City": "Luebeck",
    "Country": "Germany",
    "IATA": "LBC",
    "ICAO": "EDHL",
    "Lat": 53.80540085,
    "Long": 10.71920013,
    "TimeZone": "Europe/Berlin"
  },
  {
    "AirportName": "Essen Mulheim Airport",
    "City": "Essen",
    "Country": "Germany",
    "IATA": "ESS",
    "ICAO": "EDLE",
    "Lat": 51.40230178833008,
    "Long": 6.9373297691345215,
    "TimeZone": "Europe/Berlin"
  },
  {
    "AirportName": "Bielefeld Airport",
    "City": "Bielefeld",
    "Country": "Germany",
    "IATA": "BFE",
    "ICAO": "EDLI",
    "Lat": 51.964722,
    "Long": 8.544444,
    "TimeZone": "Europe/Berlin"
  },
  {
    "AirportName": "Mönchengladbach Airport",
    "City": "Moenchengladbach",
    "Country": "Germany",
    "IATA": "MGL",
    "ICAO": "EDLN",
    "Lat": 51.230278,
    "Long": 6.504444,
    "TimeZone": "Europe/Berlin"
  },
  {
    "AirportName": "Paderborn Lippstadt Airport",
    "City": "Paderborn",
    "Country": "Germany",
    "IATA": "PAD",
    "ICAO": "EDLP",
    "Lat": 51.614101409899995,
    "Long": 8.616319656369999,
    "TimeZone": "Europe/Berlin"
  },
  {
    "AirportName": "Dortmund Airport",
    "City": "Dortmund",
    "Country": "Germany",
    "IATA": "DTM",
    "ICAO": "EDLW",
    "Lat": 51.51829910279999,
    "Long": 7.612239838,
    "TimeZone": "Europe/Berlin"
  },
  {
    "AirportName": "Augsburg Airport",
    "City": "Augsburg",
    "Country": "Germany",
    "IATA": "AGB",
    "ICAO": "EDMA",
    "Lat": 48.425278,
    "Long": 10.931667,
    "TimeZone": "Europe/Berlin"
  },
  {
    "AirportName": "Oberpfaffenhofen Airport",
    "City": "Oberpfaffenhofen",
    "Country": "Germany",
    "IATA": "OBF",
    "ICAO": "EDMO",
    "Lat": 48.081402,
    "Long": 11.2831,
    "TimeZone": "Europe/Berlin"
  },
  {
    "AirportName": "Straubing Airport",
    "City": "Straubing",
    "Country": "Germany",
    "IATA": "RBM",
    "ICAO": "EDMS",
    "Lat": 48.90083312988281,
    "Long": 12.516667366027832,
    "TimeZone": "Europe/Berlin"
  },
  {
    "AirportName": "Friedrichshafen Airport",
    "City": "Friedrichshafen",
    "Country": "Germany",
    "IATA": "FDH",
    "ICAO": "EDNY",
    "Lat": 47.671298980699994,
    "Long": 9.511489868,
    "TimeZone": "Europe/Berlin"
  },
  {
    "AirportName": "Schwerin Parchim Airport",
    "City": "Parchim",
    "Country": "Germany",
    "IATA": "SZW",
    "ICAO": "EDOP",
    "Lat": 53.426998,
    "Long": 11.7834,
    "TimeZone": "Europe/Berlin"
  },
  {
    "AirportName": "Bayreuth Airport",
    "City": "Bayreuth",
    "Country": "Germany",
    "IATA": "BYU",
    "ICAO": "EDQD",
    "Lat": 49.985001,
    "Long": 11.64,
    "TimeZone": "Europe/Berlin"
  },
  {
    "AirportName": "Burg Feuerstein Airport",
    "City": "Burg Feuerstein",
    "Country": "Germany",
    "IATA": "URD",
    "ICAO": "EDQE",
    "Lat": 49.79416656,
    "Long": 11.13361073,
    "TimeZone": "Europe/Berlin"
  },
  {
    "AirportName": "Hof-Plauen Airport",
    "City": "Hof",
    "Country": "Germany",
    "IATA": "HOQ",
    "ICAO": "EDQM",
    "Lat": 50.288612365722656,
    "Long": 11.856389045715332,
    "TimeZone": "Europe/Berlin"
  },
  {
    "AirportName": "Zweibrücken Airport",
    "City": "Zweibruecken",
    "Country": "Germany",
    "IATA": "ZQW",
    "ICAO": "EDRZ",
    "Lat": 49.2094,
    "Long": 7.40056,
    "TimeZone": "Europe/Berlin"
  },
  {
    "AirportName": "Donaueschingen-Villingen Airport",
    "City": "Donaueschingen",
    "Country": "Germany",
    "IATA": "ZQL",
    "ICAO": "EDTD",
    "Lat": 47.97333145139999,
    "Long": 8.522221565,
    "TimeZone": "Europe/Berlin"
  },
  {
    "AirportName": "Braunschweig-Wolfsburg Airport",
    "City": "Braunschweig",
    "Country": "Germany",
    "IATA": "BWE",
    "ICAO": "EDVE",
    "Lat": 52.319199,
    "Long": 10.5561,
    "TimeZone": "Europe/Berlin"
  },
  {
    "AirportName": "Kassel-Calden Airport",
    "City": "Kassel",
    "Country": "Germany",
    "IATA": "KSF",
    "ICAO": "EDVK",
    "Lat": 51.417273,
    "Long": 9.384967,
    "TimeZone": "Europe/Berlin"
  },
  {
    "AirportName": "Bremerhaven Airport",
    "City": "Bremerhaven",
    "Country": "Germany",
    "IATA": "BRV",
    "ICAO": "EDWB",
    "Lat": 53.506943,
    "Long": 8.572778,
    "TimeZone": "Europe/Berlin"
  },
  {
    "AirportName": "Emden Airport",
    "City": "Emden",
    "Country": "Germany",
    "IATA": "EME",
    "ICAO": "EDWE",
    "Lat": 53.391109,
    "Long": 7.2275,
    "TimeZone": "Europe/Berlin"
  },
  {
    "AirportName": "Wilhelmshaven-Mariensiel Airport",
    "City": "Wilhelmshaven",
    "Country": "Germany",
    "IATA": "WVN",
    "ICAO": "EDWI",
    "Lat": 53.502220153808594,
    "Long": 8.052222252,
    "TimeZone": "Europe/Berlin"
  },
  {
    "AirportName": "Borkum Airport",
    "City": "Borkum",
    "Country": "Germany",
    "IATA": "BMK",
    "ICAO": "EDWR",
    "Lat": 53.59639,
    "Long": 6.709167,
    "TimeZone": "Europe/Berlin"
  },
  {
    "AirportName": "Norderney Airport",
    "City": "Norderney",
    "Country": "Germany",
    "IATA": "NRD",
    "ICAO": "EDWY",
    "Lat": 53.70694351196289,
    "Long": 7.230000019073486,
    "TimeZone": "Europe/Berlin"
  },
  {
    "AirportName": "Flensburg-Schäferhaus Airport",
    "City": "Flensburg",
    "Country": "Germany",
    "IATA": "FLF",
    "ICAO": "EDXF",
    "Lat": 54.77333450317383,
    "Long": 9.378889083862305,
    "TimeZone": "Europe/Berlin"
  },
  {
    "AirportName": "Westerland Sylt Airport",
    "City": "Westerland",
    "Country": "Germany",
    "IATA": "GWT",
    "ICAO": "EDXW",
    "Lat": 54.91320038,
    "Long": 8.340470314,
    "TimeZone": "Europe/Berlin"
  },
  {
    "AirportName": "Kärdla Airport",
    "City": "Kardla",
    "Country": "Estonia",
    "IATA": "KDL",
    "ICAO": "EEKA",
    "Lat": 58.99079895019531,
    "Long": 22.830699920654297,
    "TimeZone": "Europe/Tallinn"
  },
  {
    "AirportName": "Kuressaare Airport",
    "City": "Kuressaare",
    "Country": "Estonia",
    "IATA": "URE",
    "ICAO": "EEKE",
    "Lat": 58.22990036010742,
    "Long": 22.50950050354004,
    "TimeZone": "Europe/Tallinn"
  },
  {
    "AirportName": "Pärnu Airport",
    "City": "Parnu",
    "Country": "Estonia",
    "IATA": "EPU",
    "ICAO": "EEPU",
    "Lat": 58.41899871826172,
    "Long": 24.47279930114746,
    "TimeZone": "Europe/Tallinn"
  },
  {
    "AirportName": "Lennart Meri Tallinn Airport",
    "City": "Tallinn-ulemiste International",
    "Country": "Estonia",
    "IATA": "TLL",
    "ICAO": "EETN",
    "Lat": 59.41329956049999,
    "Long": 24.832799911499997,
    "TimeZone": "Europe/Tallinn"
  },
  {
    "AirportName": "Tartu Airport",
    "City": "Tartu",
    "Country": "Estonia",
    "IATA": "TAY",
    "ICAO": "EETU",
    "Lat": 58.30749893,
    "Long": 26.690399169900004,
    "TimeZone": "Europe/Tallinn"
  },
  {
    "AirportName": "Enontekio Airport",
    "City": "Enontekio",
    "Country": "Finland",
    "IATA": "ENF",
    "ICAO": "EFET",
    "Lat": 68.36260223,
    "Long": 23.42429924,
    "TimeZone": "Europe/Helsinki"
  },
  {
    "AirportName": "Halli Airport",
    "City": "Halli",
    "Country": "Finland",
    "IATA": "KEV",
    "ICAO": "EFHA",
    "Lat": 61.856039,
    "Long": 24.786686,
    "TimeZone": "Europe/Helsinki"
  },
  {
    "AirportName": "Helsinki Malmi Airport",
    "City": "Helsinki",
    "Country": "Finland",
    "IATA": "HEM",
    "ICAO": "EFHF",
    "Lat": 60.254600524902344,
    "Long": 25.042800903320312,
    "TimeZone": "Europe/Helsinki"
  },
  {
    "AirportName": "Helsinki Vantaa Airport",
    "City": "Helsinki",
    "Country": "Finland",
    "IATA": "HEL",
    "ICAO": "EFHK",
    "Lat": 60.31719971,
    "Long": 24.9633007,
    "TimeZone": "Europe/Helsinki"
  },
  {
    "AirportName": "Hyvinkää Airfield",
    "City": "Hyvinkaa",
    "Country": "Finland",
    "IATA": "HYV",
    "ICAO": "EFHV",
    "Lat": 60.65439987,
    "Long": 24.8810997,
    "TimeZone": "Europe/Helsinki"
  },
  {
    "AirportName": "Kitee Airport",
    "City": "Kitee",
    "Country": "Finland",
    "IATA": "KTQ",
    "ICAO": "EFIT",
    "Lat": 62.1661,
    "Long": 30.073601,
    "TimeZone": "Europe/Helsinki"
  },
  {
    "AirportName": "Ivalo Airport",
    "City": "Ivalo",
    "Country": "Finland",
    "IATA": "IVL",
    "ICAO": "EFIV",
    "Lat": 68.6072998,
    "Long": 27.40530014,
    "TimeZone": "Europe/Helsinki"
  },
  {
    "AirportName": "Joensuu Airport",
    "City": "Joensuu",
    "Country": "Finland",
    "IATA": "JOE",
    "ICAO": "EFJO",
    "Lat": 62.66289902,
    "Long": 29.60750008,
    "TimeZone": "Europe/Helsinki"
  },
  {
    "AirportName": "Jyvaskyla Airport",
    "City": "Jyvaskyla",
    "Country": "Finland",
    "IATA": "JYV",
    "ICAO": "EFJY",
    "Lat": 62.3995018,
    "Long": 25.67830086,
    "TimeZone": "Europe/Helsinki"
  },
  {
    "AirportName": "Kauhava Airport",
    "City": "Kauhava",
    "Country": "Finland",
    "IATA": "KAU",
    "ICAO": "EFKA",
    "Lat": 63.127102,
    "Long": 23.051399,
    "TimeZone": "Europe/Helsinki"
  },
  {
    "AirportName": "Kemi-Tornio Airport",
    "City": "Kemi",
    "Country": "Finland",
    "IATA": "KEM",
    "ICAO": "EFKE",
    "Lat": 65.77870178,
    "Long": 24.58209991,
    "TimeZone": "Europe/Helsinki"
  },
  {
    "AirportName": "Kajaani Airport",
    "City": "Kajaani",
    "Country": "Finland",
    "IATA": "KAJ",
    "ICAO": "EFKI",
    "Lat": 64.28549957,
    "Long": 27.69239998,
    "TimeZone": "Europe/Helsinki"
  },
  {
    "AirportName": "Kauhajoki Airport",
    "City": "Kauhajoki",
    "Country": "Finland",
    "IATA": "KHJ",
    "ICAO": "EFKJ",
    "Lat": 62.46250153,
    "Long": 22.39310074,
    "TimeZone": "Europe/Helsinki"
  },
  {
    "AirportName": "Kokkola-Pietarsaari Airport",
    "City": "Kruunupyy",
    "Country": "Finland",
    "IATA": "KOK",
    "ICAO": "EFKK",
    "Lat": 63.72119904,
    "Long": 23.14310074,
    "TimeZone": "Europe/Helsinki"
  },
  {
    "AirportName": "Kuusamo Airport",
    "City": "Kuusamo",
    "Country": "Finland",
    "IATA": "KAO",
    "ICAO": "EFKS",
    "Lat": 65.98760223,
    "Long": 29.23940086,
    "TimeZone": "Europe/Helsinki"
  },
  {
    "AirportName": "Kittilä Airport",
    "City": "Kittila",
    "Country": "Finland",
    "IATA": "KTT",
    "ICAO": "EFKT",
    "Lat": 67.7009964,
    "Long": 24.84679985,
    "TimeZone": "Europe/Helsinki"
  },
  {
    "AirportName": "Kuopio Airport",
    "City": "Kuopio",
    "Country": "Finland",
    "IATA": "KUO",
    "ICAO": "EFKU",
    "Lat": 63.00709915,
    "Long": 27.79780006,
    "TimeZone": "Europe/Helsinki"
  },
  {
    "AirportName": "Lahti Vesivehmaa Airport",
    "City": "Vesivehmaa",
    "Country": "Finland",
    "IATA": "QLF",
    "ICAO": "EFLA",
    "Lat": 61.144199,
    "Long": 25.693501,
    "TimeZone": "Europe/Helsinki"
  },
  {
    "AirportName": "Lappeenranta Airport",
    "City": "Lappeenranta",
    "Country": "Finland",
    "IATA": "LPP",
    "ICAO": "EFLP",
    "Lat": 61.044601,
    "Long": 28.144743,
    "TimeZone": "Europe/Helsinki"
  },
  {
    "AirportName": "Mariehamn Airport",
    "City": "Mariehamn",
    "Country": "Finland",
    "IATA": "MHQ",
    "ICAO": "EFMA",
    "Lat": 60.12220001,
    "Long": 19.89819908,
    "TimeZone": "Europe/Mariehamn"
  },
  {
    "AirportName": "Mikkeli Airport",
    "City": "Mikkeli",
    "Country": "Finland",
    "IATA": "MIK",
    "ICAO": "EFMI",
    "Lat": 61.6866,
    "Long": 27.201799,
    "TimeZone": "Europe/Helsinki"
  },
  {
    "AirportName": "Oulu Airport",
    "City": "Oulu",
    "Country": "Finland",
    "IATA": "OUL",
    "ICAO": "EFOU",
    "Lat": 64.93009949,
    "Long": 25.35460091,
    "TimeZone": "Europe/Helsinki"
  },
  {
    "AirportName": "Pori Airport",
    "City": "Pori",
    "Country": "Finland",
    "IATA": "POR",
    "ICAO": "EFPO",
    "Lat": 61.46170044,
    "Long": 21.79999924,
    "TimeZone": "Europe/Helsinki"
  },
  {
    "AirportName": "Rovaniemi Airport",
    "City": "Rovaniemi",
    "Country": "Finland",
    "IATA": "RVN",
    "ICAO": "EFRO",
    "Lat": 66.56479645,
    "Long": 25.83040047,
    "TimeZone": "Europe/Helsinki"
  },
  {
    "AirportName": "Savonlinna Airport",
    "City": "Savonlinna",
    "Country": "Finland",
    "IATA": "SVL",
    "ICAO": "EFSA",
    "Lat": 61.94309998,
    "Long": 28.94510078,
    "TimeZone": "Europe/Helsinki"
  },
  {
    "AirportName": "Sodankyla Airport",
    "City": "Sodankyla",
    "Country": "Finland",
    "IATA": "SOT",
    "ICAO": "EFSO",
    "Lat": 67.39499664,
    "Long": 26.61910057,
    "TimeZone": "Europe/Helsinki"
  },
  {
    "AirportName": "Tampere-Pirkkala Airport",
    "City": "Tampere",
    "Country": "Finland",
    "IATA": "TMP",
    "ICAO": "EFTP",
    "Lat": 61.41410065,
    "Long": 23.60440063,
    "TimeZone": "Europe/Helsinki"
  },
  {
    "AirportName": "Turku Airport",
    "City": "Turku",
    "Country": "Finland",
    "IATA": "TKU",
    "ICAO": "EFTU",
    "Lat": 60.51409912,
    "Long": 22.26280022,
    "TimeZone": "Europe/Helsinki"
  },
  {
    "AirportName": "Utti Air Base",
    "City": "Utti",
    "Country": "Finland",
    "IATA": "UTI",
    "ICAO": "EFUT",
    "Lat": 60.89640045,
    "Long": 26.93840027,
    "TimeZone": "Europe/Helsinki"
  },
  {
    "AirportName": "Vaasa Airport",
    "City": "Vaasa",
    "Country": "Finland",
    "IATA": "VAA",
    "ICAO": "EFVA",
    "Lat": 63.05070114,
    "Long": 21.7621994,
    "TimeZone": "Europe/Helsinki"
  },
  {
    "AirportName": "Varkaus Airport",
    "City": "Varkaus",
    "Country": "Finland",
    "IATA": "VRK",
    "ICAO": "EFVR",
    "Lat": 62.17110062,
    "Long": 27.86860085,
    "TimeZone": "Europe/Helsinki"
  },
  {
    "AirportName": "Ylivieska Airfield",
    "City": "Ylivieska-raudaskyla",
    "Country": "Finland",
    "IATA": "YLI",
    "ICAO": "EFYL",
    "Lat": 64.0547222,
    "Long": 24.7252778,
    "TimeZone": "Europe/Helsinki"
  },
  {
    "AirportName": "Belfast International Airport",
    "City": "Belfast",
    "Country": "United Kingdom",
    "IATA": "BFS",
    "ICAO": "EGAA",
    "Lat": 54.65750122,
    "Long": -6.215829849,
    "TimeZone": "Europe/London"
  },
  {
    "AirportName": "St Angelo Airport",
    "City": "Enniskillen",
    "Country": "United Kingdom",
    "IATA": "ENK",
    "ICAO": "EGAB",
    "Lat": 54.39889907836914,
    "Long": -7.651669979,
    "TimeZone": "Europe/London"
  },
  {
    "AirportName": "George Best Belfast City Airport",
    "City": "Belfast",
    "Country": "United Kingdom",
    "IATA": "BHD",
    "ICAO": "EGAC",
    "Lat": 54.618099212646484,
    "Long": -5.872499943,
    "TimeZone": "Europe/London"
  },
  {
    "AirportName": "City of Derry Airport",
    "City": "Londonderry",
    "Country": "United Kingdom",
    "IATA": "LDY",
    "ICAO": "EGAE",
    "Lat": 55.04280090332031,
    "Long": -7.161109924,
    "TimeZone": "Europe/London"
  },
  {
    "AirportName": "Birmingham International Airport",
    "City": "Birmingham",
    "Country": "United Kingdom",
    "IATA": "BHX",
    "ICAO": "EGBB",
    "Lat": 52.453899383499994,
    "Long": -1.748029947,
    "TimeZone": "Europe/London"
  },
  {
    "AirportName": "Coventry Airport",
    "City": "Coventry",
    "Country": "United Kingdom",
    "IATA": "CVT",
    "ICAO": "EGBE",
    "Lat": 52.36970139,
    "Long": -1.479719996,
    "TimeZone": "Europe/London"
  },
  {
    "AirportName": "Gloucestershire Airport",
    "City": "Golouchestershire",
    "Country": "United Kingdom",
    "IATA": "GLO",
    "ICAO": "EGBJ",
    "Lat": 51.89419937133789,
    "Long": -2.167220116,
    "TimeZone": "Europe/London"
  },
  {
    "AirportName": "Cotswold Airport",
    "City": "Pailton",
    "Country": "United Kingdom",
    "IATA": "GBA",
    "ICAO": "EGBP",
    "Lat": 51.668095,
    "Long": -2.05694,
    "TimeZone": "Europe/London"
  },
  {
    "AirportName": "Manchester Airport",
    "City": "Manchester",
    "Country": "United Kingdom",
    "IATA": "MAN",
    "ICAO": "EGCC",
    "Lat": 53.35369873046875,
    "Long": -2.274950027,
    "TimeZone": "Europe/London"
  },
  {
    "AirportName": "Newquay Cornwall Airport",
    "City": "Newquai",
    "Country": "United Kingdom",
    "IATA": "NQY",
    "ICAO": "EGHQ",
    "Lat": 50.44060134887695,
    "Long": -4.995409966,
    "TimeZone": "Europe/London"
  },
  {
    "AirportName": "RAF Lyneham",
    "City": "Lyneham",
    "Country": "United Kingdom",
    "IATA": "LYE",
    "ICAO": "EGDL",
    "Lat": 51.5051,
    "Long": -1.99343,
    "TimeZone": "Europe/London"
  },
  {
    "AirportName": "RNAS Yeovilton",
    "City": "Yeovilton",
    "Country": "United Kingdom",
    "IATA": "YEO",
    "ICAO": "EGDY",
    "Lat": 51.00939941,
    "Long": -2.638819933,
    "TimeZone": "Europe/London"
  },
  {
    "AirportName": "Haverfordwest Airport",
    "City": "Haverfordwest",
    "Country": "United Kingdom",
    "IATA": "HAW",
    "ICAO": "EGFE",
    "Lat": 51.833099365234375,
    "Long": -4.961110115,
    "TimeZone": "Europe/London"
  },
  {
    "AirportName": "Cardiff International Airport",
    "City": "Cardiff",
    "Country": "United Kingdom",
    "IATA": "CWL",
    "ICAO": "EGFF",
    "Lat": 51.39670181274414,
    "Long": -3.343329906,
    "TimeZone": "Europe/London"
  },
  {
    "AirportName": "Swansea Airport",
    "City": "Swansea",
    "Country": "United Kingdom",
    "IATA": "SWS",
    "ICAO": "EGFH",
    "Lat": 51.60530090332031,
    "Long": -4.067830086,
    "TimeZone": "Europe/London"
  },
  {
    "AirportName": "Bristol Airport",
    "City": "Bristol",
    "Country": "United Kingdom",
    "IATA": "BRS",
    "ICAO": "EGGD",
    "Lat": 51.382702,
    "Long": -2.71909,
    "TimeZone": "Europe/London"
  },
  {
    "AirportName": "Liverpool John Lennon Airport",
    "City": "Liverpool",
    "Country": "United Kingdom",
    "IATA": "LPL",
    "ICAO": "EGGP",
    "Lat": 53.33359909057617,
    "Long": -2.849720001,
    "TimeZone": "Europe/London"
  },
  {
    "AirportName": "London Luton Airport",
    "City": "London",
    "Country": "United Kingdom",
    "IATA": "LTN",
    "ICAO": "EGGW",
    "Lat": 51.874698638916016,
    "Long": -0.368333012,
    "TimeZone": "Europe/London"
  },
  {
    "AirportName": "Plymouth City Airport",
    "City": "Plymouth",
    "Country": "United Kingdom",
    "IATA": "PLH",
    "ICAO": "EGHD",
    "Lat": 50.422798,
    "Long": -4.10583,
    "TimeZone": "Europe/London"
  },
  {
    "AirportName": "Bournemouth Airport",
    "City": "Bournemouth",
    "Country": "United Kingdom",
    "IATA": "BOH",
    "ICAO": "EGHH",
    "Lat": 50.779998779296875,
    "Long": -1.842499971,
    "TimeZone": "Europe/London"
  },
  {
    "AirportName": "Southampton Airport",
    "City": "Southampton",
    "Country": "United Kingdom",
    "IATA": "SOU",
    "ICAO": "EGHI",
    "Lat": 50.95029830932617,
    "Long": -1.35679996,
    "TimeZone": "Europe/London"
  },
  {
    "AirportName": "Lasham Airport",
    "City": "Lasham",
    "Country": "United Kingdom",
    "IATA": "QLA",
    "ICAO": "EGHL",
    "Lat": 51.187198638916016,
    "Long": -1.033499956,
    "TimeZone": "Europe/London"
  },
  {
    "AirportName": "Alderney Airport",
    "City": "Alderney",
    "Country": "Guernsey",
    "IATA": "ACI",
    "ICAO": "EGJA",
    "Lat": 49.706104,
    "Long": -2.21472,
    "TimeZone": "Europe/Guernsey"
  },
  {
    "AirportName": "Guernsey Airport",
    "City": "Guernsey",
    "Country": "Guernsey",
    "IATA": "GCI",
    "ICAO": "EGJB",
    "Lat": 49.435001373291016,
    "Long": -2.601969957,
    "TimeZone": "Europe/Guernsey"
  },
  {
    "AirportName": "Jersey Airport",
    "City": "Jersey",
    "Country": "Jersey",
    "IATA": "JER",
    "ICAO": "EGJJ",
    "Lat": 49.20790100097656,
    "Long": -2.195509911,
    "TimeZone": "Europe/Jersey"
  },
  {
    "AirportName": "Shoreham Airport",
    "City": "Shoreham By Sea",
    "Country": "United Kingdom",
    "IATA": "ESH",
    "ICAO": "EGKA",
    "Lat": 50.835602,
    "Long": -0.297222,
    "TimeZone": "Europe/London"
  },
  {
    "AirportName": "London Biggin Hill Airport",
    "City": "Biggin Hill",
    "Country": "United Kingdom",
    "IATA": "BQH",
    "ICAO": "EGKB",
    "Lat": 51.33079910279999,
    "Long": 0.032499999,
    "TimeZone": "Europe/London"
  },
  {
    "AirportName": "London Gatwick Airport",
    "City": "London",
    "Country": "United Kingdom",
    "IATA": "LGW",
    "ICAO": "EGKK",
    "Lat": 51.148102,
    "Long": -0.190278,
    "TimeZone": "Europe/London"
  },
  {
    "AirportName": "London City Airport",
    "City": "London",
    "Country": "United Kingdom",
    "IATA": "LCY",
    "ICAO": "EGLC",
    "Lat": 51.505299,
    "Long": 0.055278,
    "TimeZone": "Europe/London"
  },
  {
    "AirportName": "Farnborough Airport",
    "City": "Farnborough",
    "Country": "United Kingdom",
    "IATA": "FAB",
    "ICAO": "EGLF",
    "Lat": 51.2757988,
    "Long": -0.776332974,
    "TimeZone": "Europe/London"
  },
  {
    "AirportName": "Blackbushe Airport",
    "City": "Blackbushe",
    "Country": "United Kingdom",
    "IATA": "BBS",
    "ICAO": "EGLK",
    "Lat": 51.32389831542969,
    "Long": -0.847500026,
    "TimeZone": "Europe/London"
  },
  {
    "AirportName": "London Heathrow Airport",
    "City": "London",
    "Country": "United Kingdom",
    "IATA": "LHR",
    "ICAO": "EGLL",
    "Lat": 51.4706,
    "Long": -0.461941,
    "TimeZone": "Europe/London"
  },
  {
    "AirportName": "Southend Airport",
    "City": "Southend",
    "Country": "United Kingdom",
    "IATA": "SEN",
    "ICAO": "EGMC",
    "Lat": 51.57139969,
    "Long": 0.6955559849739075,
    "TimeZone": "Europe/London"
  },
  {
    "AirportName": "Lydd Airport",
    "City": "Lydd",
    "Country": "United Kingdom",
    "IATA": "LYX",
    "ICAO": "EGMD",
    "Lat": 50.95610046386719,
    "Long": 0.9391670227050781,
    "TimeZone": "Europe/London"
  },
  {
    "AirportName": "Kent International Airport",
    "City": "Manston",
    "Country": "United Kingdom",
    "IATA": "MSE",
    "ICAO": "EGMH",
    "Lat": 51.342201,
    "Long": 1.34611,
    "TimeZone": "Europe/London"
  },
  {
    "AirportName": "Carlisle Airport",
    "City": "Carlisle",
    "Country": "United Kingdom",
    "IATA": "CAX",
    "ICAO": "EGNC",
    "Lat": 54.9375,
    "Long": -2.809170008,
    "TimeZone": "Europe/London"
  },
  {
    "AirportName": "Blackpool International Airport",
    "City": "Blackpool",
    "Country": "United Kingdom",
    "IATA": "BLK",
    "ICAO": "EGNH",
    "Lat": 53.77170181274414,
    "Long": -3.028609991,
    "TimeZone": "Europe/London"
  },
  {
    "AirportName": "Humberside Airport",
    "City": "Humberside",
    "Country": "United Kingdom",
    "IATA": "HUY",
    "ICAO": "EGNJ",
    "Lat": 53.57440185546875,
    "Long": -0.350832999,
    "TimeZone": "Europe/London"
  },
  {
    "AirportName": "Barrow Walney Island Airport",
    "City": "Barrow Island",
    "Country": "United Kingdom",
    "IATA": "BWF",
    "ICAO": "EGNL",
    "Lat": 54.1286111,
    "Long": -3.2675,
    "TimeZone": "Europe/London"
  },
  {
    "AirportName": "Leeds Bradford Airport",
    "City": "Leeds",
    "Country": "United Kingdom",
    "IATA": "LBA",
    "ICAO": "EGNM",
    "Lat": 53.86589813232422,
    "Long": -1.660570025,
    "TimeZone": "Europe/London"
  },
  {
    "AirportName": "Warton Airport",
    "City": "Warton",
    "Country": "United Kingdom",
    "IATA": "WRT",
    "ICAO": "EGNO",
    "Lat": 53.745098,
    "Long": -2.88306,
    "TimeZone": "Europe/London"
  },
  {
    "AirportName": "Hawarden Airport",
    "City": "Hawarden",
    "Country": "United Kingdom",
    "IATA": "CEG",
    "ICAO": "EGNR",
    "Lat": 53.17810059,
    "Long": -2.977780104,
    "TimeZone": "Europe/London"
  },
  {
    "AirportName": "Isle of Man Airport",
    "City": "Isle Of Man",
    "Country": "Isle of Man",
    "IATA": "IOM",
    "ICAO": "EGNS",
    "Lat": 54.08330154418945,
    "Long": -4.623889923,
    "TimeZone": "Europe/Isle_of_Man"
  },
  {
    "AirportName": "Newcastle Airport",
    "City": "Newcastle",
    "Country": "United Kingdom",
    "IATA": "NCL",
    "ICAO": "EGNT",
    "Lat": 55.037498474121094,
    "Long": -1.691669941,
    "TimeZone": "Europe/London"
  },
  {
    "AirportName": "Durham Tees Valley Airport",
    "City": "Teesside",
    "Country": "United Kingdom",
    "IATA": "MME",
    "ICAO": "EGNV",
    "Lat": 54.50920104980469,
    "Long": -1.429409981,
    "TimeZone": "Europe/London"
  },
  {
    "AirportName": "East Midlands Airport",
    "City": "East Midlands",
    "Country": "United Kingdom",
    "IATA": "EMA",
    "ICAO": "EGNX",
    "Lat": 52.83110046,
    "Long": -1.328060031,
    "TimeZone": "Europe/London"
  },
  {
    "AirportName": "Kirkwall Airport",
    "City": "Kirkwall",
    "Country": "United Kingdom",
    "IATA": "KOI",
    "ICAO": "EGPA",
    "Lat": 58.957801818847656,
    "Long": -2.904999971,
    "TimeZone": "Europe/London"
  },
  {
    "AirportName": "Sumburgh Airport",
    "City": "Sumburgh",
    "Country": "United Kingdom",
    "IATA": "LSI",
    "ICAO": "EGPB",
    "Lat": 59.87889862060547,
    "Long": -1.295560002,
    "TimeZone": "Europe/London"
  },
  {
    "AirportName": "Wick Airport",
    "City": "Wick",
    "Country": "United Kingdom",
    "IATA": "WIC",
    "ICAO": "EGPC",
    "Lat": 58.458900451660156,
    "Long": -3.093060017,
    "TimeZone": "Europe/London"
  },
  {
    "AirportName": "Aberdeen Dyce Airport",
    "City": "Aberdeen",
    "Country": "United Kingdom",
    "IATA": "ABZ",
    "ICAO": "EGPD",
    "Lat": 57.201900482177734,
    "Long": -2.197779894,
    "TimeZone": "Europe/London"
  },
  {
    "AirportName": "Inverness Airport",
    "City": "Inverness",
    "Country": "United Kingdom",
    "IATA": "INV",
    "ICAO": "EGPE",
    "Lat": 57.54249954223633,
    "Long": -4.047500134,
    "TimeZone": "Europe/London"
  },
  {
    "AirportName": "Glasgow International Airport",
    "City": "Glasgow",
    "Country": "United Kingdom",
    "IATA": "GLA",
    "ICAO": "EGPF",
    "Lat": 55.87189865,
    "Long": -4.433060169,
    "TimeZone": "Europe/London"
  },
  {
    "AirportName": "Edinburgh Airport",
    "City": "Edinburgh",
    "Country": "United Kingdom",
    "IATA": "EDI",
    "ICAO": "EGPH",
    "Lat": 55.95000076293945,
    "Long": -3.372499943,
    "TimeZone": "Europe/London"
  },
  {
    "AirportName": "Islay Airport",
    "City": "Islay",
    "Country": "United Kingdom",
    "IATA": "ILY",
    "ICAO": "EGPI",
    "Lat": 55.68190002441406,
    "Long": -6.256669998,
    "TimeZone": "Europe/London"
  },
  {
    "AirportName": "Glasgow Prestwick Airport",
    "City": "Prestwick",
    "Country": "United Kingdom",
    "IATA": "PIK",
    "ICAO": "EGPK",
    "Lat": 55.50939941,
    "Long": -4.586669922,
    "TimeZone": "Europe/London"
  },